location	city	state	zip	county	countyname	latitude	longitude
40.20564582,-74.64750656	Hamilton	NJ	8690	34021	Mercer	40.20564582	-74.64750656
40.37510108,-79.97947412	Brentwood	PA	15227	42003	Allegheny	40.37510108	-79.97947412
42.99743027,-74.68355329	St. Johnsville	NY	13452	36057	Montgomery	42.99743027	-74.68355329
46.56481876,-87.44729147	Marquette	MI	49855	26103	Marquette	46.56481876	-87.44729147
43.07719983,-76.0840783	De Witt	NY	13057	36067	Onondaga	43.07719983	-76.0840783
40.59160234,-74.08038363	Staten Island	NY	10305	36085	Richmond	40.59160234	-74.08038363
44.96706042,-93.40422641	St. Louis Park	MN	55426	27053	Hennepin	44.96706042	-93.40422641
40.26472014,-74.52506868	Hightstown	NJ	8520	34021	Mercer	40.26472014	-74.52506868
40.49615534,-81.44542103	New Philadelphia	OH	44663	39157	Tuscarawas	40.49615534	-81.44542103
26.70166531,-80.15303388	Golden Lakes	FL	33415	12099	Palm beach	26.70166531	-80.15303388
42.24639649,-83.74638341	Ann Arbor	MI	48104	26161	Washtenaw	42.24639649	-83.74638341
26.0689114,-97.2003237	East Cameron	TX	78578	48061	Cameron	26.0689114	-97.2003237
36.3931848,-86.4589703	Gallatin	TN	37022	47165	Sumner	36.3931848	-86.4589703
40.75544461,-73.97680039	Manhattan	NY	10177	36061	New york	40.75544461	-73.97680039
40.92007173,-74.24191942	Wayne	NJ	7512	34031	Passaic	40.92007173	-74.24191942
41.951503,-87.7679738	Chicago	IL	60641	17031	Cook	41.951503	-87.7679738
39.224,-84.4620176	Lockland	OH	45215	39061	Hamilton	39.224	-84.4620176
40.19530795,-87.62953098	Danville	IL	61834	17183	Vermilion	40.19530795	-87.62953098
39.2618533,-84.5093264	Greenhills	OH	45299	39061	Hamilton	39.2618533	-84.5093264
42.04089621,-92.95435686	Marshalltown	IA	50158	19127	Marshall	42.04089621	-92.95435686
47.2290713,-122.3971119	Tacoma	WA	98404	53053	Pierce	47.2290713	-122.3971119
42.0741686,-72.68119378	Agawam	MA	1030	25013	Hampden	42.0741686	-72.68119378
38.88163252,-94.53591745	Grandview	MO	64030	29095	Jackson	38.88163252	-94.53591745
38.8933934,-104.712576	Elsmere	CO	80922	8041	El paso	38.8933934	-104.712576
39.6140731,-84.22354348	Miami	OH	45342	39113	Montgomery	39.6140731	-84.22354348
40.9161148,-73.95927523	Tenafly	NJ	7670	34003	Bergen	40.9161148	-73.95927523
26.13157891,-80.27744133	Plantation	FL	33324	12011	Broward	26.13157891	-80.27744133
39.41172095,-74.36294029	Brigantine	NJ	8205	34001	Atlantic	39.41172095	-74.36294029
40.512222,-81.4570631	Dover	OH	44622	39157	Tuscarawas	40.512222	-81.4570631
34.1010124,-117.88703115	Covina	CA	91723	6037	Los angeles	34.1010124	-117.88703115
41.6694768,-72.9496424	Bristol	CT	6010	9003	Hartford	41.6694768	-72.9496424
29.88473983,-95.46840828	Houston	TX	77038	48201	Harris	29.88473983	-95.46840828
40.86993339,-73.06876573	Centereach	NY	11720	36103	Suffolk	40.86993339	-73.06876573
30.155298,-85.6053994	Springfield	FL	32404	12005	Bay	30.155298	-85.6053994
30.411556,-97.706421	Austin	TX	78727	48453	Travis	30.411556	-97.706421
32.31878674,-90.17529952	Jackson	MS	39210	28049	Hinds	32.31878674	-90.17529952
39.82515493,-75.18174838	West Deptford	NJ	8086	34015	Gloucester	39.82515493	-75.18174838
30.72330105,-88.14392735	Mobile	AL	36618	1097	Mobile	30.72330105	-88.14392735
33.02437215,-80.19434349	Summerville	SC	29483	45035	Dorchester	33.02437215	-80.19434349
40.72052929,-74.30978843	Millburn	NJ	7041	34013	Essex	40.72052929	-74.30978843
42.3731307,-88.1532661	Grant	IL	60020	17097	Lake	42.3731307	-88.1532661
42.62345016,-82.95995476	Clinton	MI	48038	26099	Macomb	42.62345016	-82.95995476
38.6128651,-90.2869127	St. Louis	MO	63139	29510	St louis city	38.6128651	-90.2869127
42.19476652,-83.20885976	Southgate	MI	48195	26163	Wayne	42.19476652	-83.20885976
41.2717437,-81.8153939	Brunswick	OH	44212	39103	Medina	41.2717437	-81.8153939
39.95386392,-75.00007758	Maple Shade	NJ	8052	34005	Burlington	39.95386392	-75.00007758
47.69285705,-117.41396709	Spokane	WA	99207	53063	Spokane	47.69285705	-117.41396709
36.114646,-115.172813	Paradise	NV	89109	32003	Clark	36.114646	-115.172813
34.12595011,-117.54710309	Rancho Cucamonga	CA	91737	6071	San bernardino	34.12595011	-117.54710309
40.70992039,-74.01076865	Manhattan	NY	10271	36061	New york	40.70992039	-74.01076865
35.9664045,-86.6606092	Nolensville	TN	37135	47037	Williamson	35.9664045	-86.6606092
43.76111045,-71.68870834	Plymouth	NH	3264	33009	Grafton	43.76111045	-71.68870834
40.75434079,-73.32000885	Deer Park	NY	11729	36103	Suffolk	40.75434079	-73.32000885
43.14529769,-77.59003795	Rochester	NY	14607	36055	Monroe	43.14529769	-77.59003795
42.13202667,-88.02238178	Palatine	IL	60074	17031	Cook	42.13202667	-88.02238178
34.0771139,-117.9775768	Baldwin Park	CA	91706	6037	Los angeles	34.0771139	-117.9775768
33.88936759,-84.52577175	Smyrna	GA	30080	13067	Cobb	33.88936759	-84.52577175
29.72306135,-95.36511858	Houston	TX	77004	48201	Harris	29.72306135	-95.36511858
40.66999779,-74.22351577	Elizabeth	NJ	7208	34039	Union	40.66999779	-74.22351577
40.71599582,-73.80362278	Queens	NY	11432	36081	Queens	40.71599582	-73.80362278
38.92292905,-75.4331137	Milford	DE	19963	10001	Sussex	38.92292905	-75.4331137
39.0122669,-95.7359112	Topeka	KS	66614	20177	Shawnee	39.0122669	-95.7359112
40.30962612,-74.32384898	Yorketown	NJ	7726	34025	Monmouth	40.30962612	-74.32384898
39.98990421,-74.99501232	Cinnaminson	NJ	8077	34005	Burlington	39.98990421	-74.99501232
40.76334892,-73.97868062	Manhattan	NY	10105	36061	New york	40.76334892	-73.97868062
39.4094992,-84.58257395	Hamilton	OH	45004	39017	Butler	39.4094992	-84.58257395
39.0098522,-122.0533362	Central Colusa	CA	96912	6011	Guam	39.0098522	-122.0533362
35.25388827,-81.05012308	Belmont	NC	28012	37071	Gaston	35.25388827	-81.05012308
41.70376437,-70.02778504	East Harwich	MA	2669	25001	Barnstable	41.70376437	-70.02778504
33.9263526,-118.21545443	Lynwood	CA	90280	6037	Los angeles	33.9263526	-118.21545443
32.48278162,-84.56193915	North Buena Vista	GA	31801	13197	Talbot	32.48278162	-84.56193915
40.3869472,-75.48862557	Pennsburg	PA	18073	42091	Montgomery	40.3869472	-75.48862557
43.7724915,-88.4461046	Fond du Lac	WI	54935	55039	Fond du lac	43.7724915	-88.4461046
34.10828565,-118.15270994	South Pasadena	CA	91030	6037	Los angeles	34.10828565	-118.15270994
42.08539813,-75.96671337	Vestal	NY	13850	36007	Broome	42.08539813	-75.96671337
33.4189449,-111.92541688	Tempe	AZ	85281	4013	Maricopa	33.4189449	-111.92541688
40.61615737,-75.38981743	Bethlehem	PA	18018	42077	Northampton	40.61615737	-75.38981743
45.16783894,-93.38261296	Champlin	MN	55316	27053	Hennepin	45.16783894	-93.38261296
39.92275119,-104.95338673	Thornton	CO	80241	8001	Adams	39.92275119	-104.95338673
39.50241751,-76.1544212	Aberdeen Proving Ground	MD	21001	24025	Harford	39.50241751	-76.1544212
40.1349171,-84.24955961	Piqua	OH	45356	39109	Miami	40.1349171	-84.24955961
27.7125448,-97.4062793	Corpus Christi	TX	78415	48355	Nueces	27.7125448	-97.4062793
38.89709445,-99.3264407	Hays	KS	67601	20051	Ellis	38.89709445	-99.3264407
29.69843213,-95.29499387	Houston	TX	77087	48201	Harris	29.69843213	-95.29499387
33.97066717,-98.51232216	Wichita Falls	TX	76311	48485	Wichita	33.97066717	-98.51232216
44.52750621,-89.57720591	Stevens Point	WI	54481	55097	Portage	44.52750621	-89.57720591
41.9971682,-92.6654482	Indian Village	IA	50173	19171	Tama	41.9971682	-92.6654482
41.4266027,-86.8980277	Wanatah	IN	46390	18127	La porte	41.4266027	-86.8980277
42.20251082,-71.68387106	Grafton	MA	1519	25027	Worcester	42.20251082	-71.68387106
40.1672073,-92.1687731	Edina	MO	63537	29103	Knox	40.1672073	-92.1687731
29.01372079,-95.3995455	Clute	TX	77531	48039	Brazoria	29.01372079	-95.3995455
41.30416597,-96.11543857	Omaha	NE	68164	31055	Douglas	41.30416597	-96.11543857
40.1072129,-82.8244431	Columbus	OH	43054	39049	Franklin	40.1072129	-82.8244431
41.8694374,-87.769208	Chicago	IL	60304	17031	Cook	41.8694374	-87.769208
45.5689759,-94.1951937	St. Cloud	MN	56303	27145	Stearns	45.5689759	-94.1951937
40.60266069,-73.98708353	New York	NY	11214	36047	Kings	40.60266069	-73.98708353
37.3463301,-79.9070741	Cloverdale	VA	24019	51770	Botetourt	37.3463301	-79.9070741
39.3268551,-84.4172002	Beckett Ridge	OH	45069	39017	Butler	39.3268551	-84.4172002
39.90331393,-75.28755603	Glenolden	PA	19036	42045	Delaware	39.90331393	-75.28755603
26.24163844,-80.25892253	Coral Springs	FL	33071	12011	Broward	26.24163844	-80.25892253
34.06598048,-118.35111574	Los Angeles	CA	90036	6037	Los angeles	34.06598048	-118.35111574
40.11549031,-74.93278155	Bensalem	PA	19020	42017	Bucks	40.11549031	-74.93278155
36.4918344,-86.8767958	Springfield	TN	37172	47147	Robertson	36.4918344	-86.8767958
33.94130974,-84.33391883	Dunwoody	GA	30346	13089	Dekalb	33.94130974	-84.33391883
39.9105176,-78.9672402	Brothersvalley	PA	15530	42111	Somerset	39.9105176	-78.9672402
38.85740533,-91.94547225	Fulton	MO	65251	29027	Callaway	38.85740533	-91.94547225
40.84374023,-73.9889785	Palisades Park	NJ	7650	34003	Bergen	40.84374023	-73.9889785
41.5512806,-74.19265824	Walden	NY	12549	36071	Orange	41.5512806	-74.19265824
39.83661827,-75.44532544	Boothwyn	PA	19061	42045	Delaware	39.83661827	-75.44532544
36.0862624,-79.89080587	Morehead	NC	27409	37081	Guilford	36.0862624	-79.89080587
39.85732269,-74.71787263	Tabernacle	NJ	8064	34005	Burlington	39.85732269	-74.71787263
46.74423967,-92.2365999	Proctor	MN	55807	27137	St louis	46.74423967	-92.2365999
46.98541072,-123.8145798	Aberdeen	WA	98520	53027	Grays harbor	46.98541072	-123.8145798
30.27683403,-87.69401932	Gulf Shores	AL	36511	1003	Baldwin	30.27683403	-87.69401932
42.47596425,-71.18333984	Woburn	MA	1801	25017	Middlesex	42.47596425	-71.18333984
32.07830518,-96.50000003	Corsicana	TX	75110	48349	Navarro	32.07830518	-96.50000003
40.86684994,-73.91996831	Manhattan	NY	10034	36061	New york	40.86684994	-73.91996831
40.2996016,-75.60901624	Douglass	PA	19525	42091	Montgomery	40.2996016	-75.60901624
39.59268414,-75.10893303	Upper Pittsgrove	NJ	8328	34015	Gloucester	39.59268414	-75.10893303
47.06836249,-122.26009085	Graham	WA	98338	53053	Pierce	47.06836249	-122.26009085
39.92477283,-82.89440633	Columbus	OH	43227	39049	Franklin	39.92477283	-82.89440633
38.5205802,-121.4555107	Parkway-South Sacramento	CA	95824	6067	Sacramento	38.5205802	-121.4555107
39.29585346,-75.62673239	Smyrna	DE	19977	10001	Kent	39.29585346	-75.62673239
38.89680553,-77.2697312	Vienna	VA	22180	51013	Fairfax	38.89680553	-77.2697312
40.78500943,-76.23426549	Frackville	PA	17931	42107	Schuylkill	40.78500943	-76.23426549
44.9577976,-93.0116715	St. Paul	MN	55119	27123	Ramsey	44.9577976	-93.0116715
40.32025957,-111.70915546	Orem	UT	84057	49049	Utah	40.32025957	-111.70915546
39.5508108,-89.309147	Taylorville	IL	62568	17021	Christian	39.5508108	-89.309147
43.10763257,-83.63672251	Genesee	MI	48437	26049	Genesee	43.10763257	-83.63672251
36.0766817,-79.9533876	Morehead	NC	27409	37081	Guilford	36.0766817	-79.9533876
42.01133836,-71.44788325	Cumberland	RI	2838	44007	Providence	42.01133836	-71.44788325
32.80116813,-117.15788259	San Diego	CA	92111	6073	San diego	32.80116813	-117.15788259
29.97387827,-90.00649941	New Orleans	LA	70117	22071	Orleans	29.97387827	-90.00649941
39.9863099,-75.1554113	Philadelphia	PA	19122	42101	Philadelphia	39.9863099	-75.1554113
40.61611112,-75.38986266	Bethlehem	PA	18018	42077	Northampton	40.61611112	-75.38986266
40.8244673,-96.6725754	Lincoln	NE	68503	31109	Lancaster	40.8244673	-96.6725754
39.97357941,-75.04061127	Pennsauken	NJ	8110	34007	Camden	39.97357941	-75.04061127
28.13986725,-82.78508973	Tarpon Springs	FL	34689	12103	Pinellas	28.13986725	-82.78508973
39.77112365,-104.99242165	Denver	CO	80211	8031	Denver	39.77112365	-104.99242165
41.49819513,-90.53281392	Moline	IL	61299	17161	Rock island	41.49819513	-90.53281392
33.65664033,-117.90324102	Costa Mesa	CA	92627	6059	Orange	33.65664033	-117.90324102
46.1703548,-119.14438671	Kennewick	WA	99337	53005	Benton	46.1703548	-119.14438671
42.16123199,-88.42275085	Huntley	IL	60142	17111	Mchenry	42.16123199	-88.42275085
32.69265912,-97.27605907	Fort Worth	TX	76119	48439	Tarrant	32.69265912	-97.27605907
40.74471338,-73.78901959	Queens	NY	11365	36081	Queens	40.74471338	-73.78901959
41.83758584,-94.09069342	Perry	IA	50220	19049	Dallas	41.83758584	-94.09069342
35.52612159,-97.9412656	El Reno	OK	73036	40017	Canadian	35.52612159	-97.9412656
38.81015447,-90.35440134	Lewis and Clark	MO	63042	29189	St louis	38.81015447	-90.35440134
47.1348762,-122.2903264	South Hill	WA	98374	53053	Pierce	47.1348762	-122.2903264
38.82175883,-90.339602	Lewis and Clark	MO	63031	29189	St louis	38.82175883	-90.339602
38.92485861,-84.54494756	Independence	KY	41051	21117	Kenton	38.92485861	-84.54494756
42.297781,-89.0074389	Rockford	IL	61114	17201	Winnebago	42.297781	-89.0074389
40.22738297,-74.03302942	Ocean	NJ	7711	34025	Monmouth	40.22738297	-74.03302942
39.6795763,-79.88740324	Eastern	WV	26507	54061	Monongalia	39.6795763	-79.88740324
43.5368505,-83.97177828	Frankenlust	MI	48710	26017	Bay	43.5368505	-83.97177828
29.88474316,-95.46841018	Houston	TX	77038	48201	Harris	29.88474316	-95.46841018
37.75327621,-87.19499954	Daviess West	KY	42356	21059	Daviess	37.75327621	-87.19499954
38.2045741,-85.6809658	Jefferson Central	KY	40201	21111	Jefferson	38.2045741	-85.6809658
41.48379625,-73.04594849	Naugatuck	CT	6403	9009	New haven	41.48379625	-73.04594849
43.04437658,-76.25268276	Fairmount	NY	13219	36067	Onondaga	43.04437658	-76.25268276
42.9025388,-87.8582323	South Milwaukee	WI	53172	55079	Milwaukee	42.9025388	-87.8582323
40.33609022,-76.73650081	Skyline View	PA	17112	42043	Dauphin	40.33609022	-76.73650081
36.97313328,-120.06783269	Madera	CA	93637	6039	Madera	36.97313328	-120.06783269
40.56816763,-74.12869028	Staten Island	NY	10306	36085	Richmond	40.56816763	-74.12869028
40.7160224,-73.80362698	Queens	NY	11432	36081	Queens	40.7160224	-73.80362698
34.11908034,-117.7789191	La Verne	CA	91773	6037	Los angeles	34.11908034	-117.7789191
29.34693832,-98.41604965	San Antonio	TX	78112	48029	Bexar	29.34693832	-98.41604965
33.98780422,-81.03609268	Columbia	SC	29201	45079	Richland	33.98780422	-81.03609268
37.24443584,-93.27732565	Springfield	MO	65803	29077	Greene	37.24443584	-93.27732565
35.34499786,-77.9681042	Goldsboro	NC	27531	37191	Wayne	35.34499786	-77.9681042
36.1638958,-86.7617057	Nashville	TN	37213	47037	Davidson	36.1638958	-86.7617057
35.023325,-89.831159	Memphis	TN	38141	47157	Shelby	35.023325	-89.831159
33.5059168,-86.8486744	Birmingham	AL	35204	1073	Jefferson	33.5059168	-86.8486744
40.8070545,-77.862281	College	PA	16802	42027	Centre	40.8070545	-77.862281
40.0047652,-75.00171055	Cinnaminson	NJ	8077	34005	Burlington	40.0047652	-75.00171055
41.50698707,-87.04693314	Valparaiso	IN	46384	18127	Porter	41.50698707	-87.04693314
30.43382127,-81.68965938	Jacksonville	FL	32218	12031	Duval	30.43382127	-81.68965938
42.67041373,-83.23506633	Auburn Hills	MI	48326	26125	Oakland	42.67041373	-83.23506633
35.20909449,-80.76391765	Charlotte	NC	28205	37119	Mecklenburg	35.20909449	-80.76391765
43.03032392,-78.7483056	Amherst	NY	14051	36029	Erie	43.03032392	-78.7483056
32.976051,-80.073023	North Charleston	SC	29456	45019	Berkeley	32.976051	-80.073023
41.90309146,-88.00973629	Lombard	IL	60101	17043	Du page	41.90309146	-88.00973629
40.06983779,-75.18736114	Philadelphia	PA	19118	42101	Philadelphia	40.06983779	-75.18736114
41.58926928,-93.76276969	West Des Moines	IA	50265	19153	Polk	41.58926928	-93.76276969
42.9003589,-85.59777345	Kentwood	MI	49546	26081	Kent	42.9003589	-85.59777345
29.88475318,-95.46838764	Houston	TX	77038	48201	Harris	29.88475318	-95.46838764
39.9597312,-74.99810005	Maple Shade	NJ	8052	34005	Burlington	39.9597312	-74.99810005
32.82788512,-117.19055694	San Diego	CA	92117	6073	San diego	32.82788512	-117.19055694
39.532046,-119.8122302	Reno North	NV	89501	32031	Washoe	39.532046	-119.8122302
40.83524754,-72.79079638	Manorville	NY	11949	36103	Suffolk	40.83524754	-72.79079638
42.34997238,-91.47918228	Hazel Green	IA	52330	19113	Delaware	42.34997238	-91.47918228
40.37451178,-79.98532492	Brentwood	PA	15227	42003	Allegheny	40.37451178	-79.98532492
41.5694285,-93.702048	Des Moines	IA	50312	19153	Polk	41.5694285	-93.702048
41.13171195,-95.95151414	Bellevue	NE	68123	31153	Sarpy	41.13171195	-95.95151414
29.69821103,-98.66303654	Scenic Oaks	TX	78255	48029	Bexar	29.69821103	-98.66303654
36.0766817,-79.9533876	Morehead	NC	27409	37081	Guilford	36.0766817	-79.9533876
40.09458,-75.12742	Jenkintown	PA	19046	42091	Montgomery	40.09458	-75.12742
43.23468167,-75.12337385	Deerfield	NY	13304	36065	Oneida	43.23468167	-75.12337385
34.168557,-118.09743812	Pasadena	CA	91107	6037	Los angeles	34.168557	-118.09743812
34.40230755,-77.62375053	Topsail	NC	28443	37141	Pender	34.40230755	-77.62375053
41.93768437,-87.96957708	Addison	IL	60106	17043	Du page	41.93768437	-87.96957708
35.4448213,-88.6358689	Henderson	TN	38340	47023	Chester	35.4448213	-88.6358689
41.84209091,-94.10282484	Perry	IA	50220	19049	Dallas	41.84209091	-94.10282484
33.92231937,-84.57283017	Marietta	GA	30006	13067	Cobb	33.92231937	-84.57283017
47.86163979,-122.18027525	Seattle Hill-Silver Firs	WA	98012	53061	Snohomish	47.86163979	-122.18027525
41.7435322,-87.66894125	Chicago	IL	60620	17031	Cook	41.7435322	-87.66894125
41.71492636,-88.0658738	Bolingbrook	IL	60440	17197	Will	41.71492636	-88.0658738
33.83632585,-117.31284396	Perris Valley	CA	92570	6065	Riverside	33.83632585	-117.31284396
29.27421461,-94.84350177	Galveston	TX	77551	48167	Galveston	29.27421461	-94.84350177
38.94280054,-104.77798784	Colorado Springs	CO	80920	8041	El paso	38.94280054	-104.77798784
41.11014983,-73.79564962	Hawthorne	NY	10532	36119	Westchester	41.11014983	-73.79564962
41.9994235,-72.59448081	Thompsonville	CT	6082	9003	Hartford	41.9994235	-72.59448081
42.92472241,-78.80425564	Buffalo	NY	14215	36029	Erie	42.92472241	-78.80425564
41.4989663,-73.96956283	Beacon	NY	12508	36027	Dutchess	41.4989663	-73.96956283
40.72344741,-74.06554097	Jersey City	NJ	7306	34017	Hudson	40.72344741	-74.06554097
48.72436976,-122.49128516	Bellingham	WA	98225	53073	Whatcom	48.72436976	-122.49128516
36.44300457,-86.31793899	Castalian Springs	TN	37022	47165	Sumner	36.44300457	-86.31793899
39.92257517,-75.2562904	Darby	PA	19023	42045	Delaware	39.92257517	-75.2562904
35.76133773,-95.37902623	Muskogee	OK	74403	40101	Muskogee	35.76133773	-95.37902623
40.81982887,-74.16694674	Nutley	NJ	7110	34013	Essex	40.81982887	-74.16694674
42.24605786,-71.90880932	Leicester	MA	1524	25027	Worcester	42.24605786	-71.90880932
40.62740661,-74.14903699	Staten Island	NY	10302	36085	Richmond	40.62740661	-74.14903699
41.233888,-73.17743909	Trumbull	CT	6611	9001	Fairfield	41.233888	-73.17743909
41.65949379,-70.89335466	Fairhaven	MA	2719	25005	Bristol	41.65949379	-70.89335466
29.74994232,-90.13354794	Jean Lafitte	LA	70067	22051	Jefferson	29.74994232	-90.13354794
31.1429754,-85.4698676	Taylor	AL	36305	1069	Houston	31.1429754	-85.4698676
32.75239441,-83.77549328	Lizella	GA	31216	13021	Bibb	32.75239441	-83.77549328
35.6562306,-88.40538025	Lexington	TN	38351	47077	Henderson	35.6562306	-88.40538025
46.99228224,-122.90262152	Tumwater	WA	98501	53067	Thurston	46.99228224	-122.90262152
42.73236219,-84.50086281	East Lansing	MI	48824	26065	Ingham	42.73236219	-84.50086281
40.98434529,-76.0394124	Sugarloaf	PA	18219	42079	Luzerne	40.98434529	-76.0394124
32.29142911,-95.32451129	Tyler	TX	75703	48423	Smith	32.29142911	-95.32451129
36.17087142,-82.799713	Greeneville	TN	37744	47059	Greene	36.17087142	-82.799713
25.9582054,-97.47155188	Brownsville	TX	78526	48061	Cameron	25.9582054	-97.47155188
40.4020187,-81.3428628	Uhrichsville	OH	44683	39157	Tuscarawas	40.4020187	-81.3428628
43.469869,-111.99208	Idaho Falls	ID	83404	16019	Bonneville	43.469869	-111.99208
39.25531103,-81.63970688	Blennerhassett	WV	45714	54107	Washington	39.25531103	-81.63970688
40.92791474,-72.96265851	Rocky Point	NY	11764	36103	Suffolk	40.92791474	-72.96265851
41.10133083,-73.43952161	Norwalk	CT	6854	9001	Fairfield	41.10133083	-73.43952161
40.06437357,-75.17637139	Philadelphia	PA	19150	42101	Philadelphia	40.06437357	-75.17637139
41.59586689,-87.55910506	Calumet City	IL	60409	17031	Cook	41.59586689	-87.55910506
38.0584439,-85.7140137	Brooks	KY	40129	21029	Bullitt	38.0584439	-85.7140137
41.91394942,-87.64038532	Chicago	IL	60614	17031	Cook	41.91394942	-87.64038532
39.1752872,-86.55188235	Bloomington	IN	47406	18105	Monroe	39.1752872	-86.55188235
38.9938182,-76.9911314	Silver Spring	MD	20787	24033	Prince georges	38.9938182	-76.9911314
40.7987276,-81.5234287	Massillon	OH	44647	39151	Stark	40.7987276	-81.5234287
40.84506402,-73.98080184	Fort Lee	NJ	7024	34003	Bergen	40.84506402	-73.98080184
38.78071516,-76.21721153	St. Michaels	MD	21663	24041	Talbot	38.78071516	-76.21721153
37.68409927,-96.86451693	Spring	KS	67010	20015	Butler	37.68409927	-96.86451693
40.13785836,-74.28282164	Jackson	NJ	8527	34029	Ocean	40.13785836	-74.28282164
36.08802161,-115.03229865	Whitney	NV	89077	32003	Clark	36.08802161	-115.03229865
32.63518278,-96.90656869	Duncanville	TX	75137	48113	Dallas	32.63518278	-96.90656869
32.48364164,-97.36357913	Burleson	TX	76059	48251	Johnson	32.48364164	-97.36357913
41.2426132,-87.645664	Grant Park	IL	60940	17091	Kankakee	41.2426132	-87.645664
41.83777488,-94.10554903	Perry	IA	50220	19049	Dallas	41.83777488	-94.10554903
26.16178836,-97.91119924	Mercedes	TX	78570	48215	Hidalgo	26.16178836	-97.91119924
40.78943623,-81.46298447	Perry Heights	OH	44750	39151	Stark	40.78943623	-81.46298447
34.07536061,-118.28262524	Los Angeles	CA	90057	6037	Los angeles	34.07536061	-118.28262524
42.33333394,-71.12721059	Brookline	MA	2445	25021	Norfolk	42.33333394	-71.12721059
43.19831522,-76.1842607	Clay	NY	13041	36067	Onondaga	43.19831522	-76.1842607
28.00084411,-82.50537869	Egypt Lake-Leto	FL	33614	12057	Hillsborough	28.00084411	-82.50537869
43.03529098,-74.98815702	Herkimer	NY	13350	36043	Herkimer	43.03529098	-74.98815702
42.95476995,-88.0560866	Greenfield	WI	53130	55079	Milwaukee	42.95476995	-88.0560866
38.80695833,-77.13900433	Alexandria	VA	22312	51510	Fairfax	38.80695833	-77.13900433
41.69030357,-88.22389224	Wheatland	IL	60564	17197	Will	41.69030357	-88.22389224
40.0874523,-74.9817803	Philadelphia	PA	19154	42101	Philadelphia	40.0874523	-74.9817803
35.24621396,-81.66961947	Boiling Springs	NC	28017	37045	Cleveland	35.24621396	-81.66961947
40.7927063,-81.50324306	Massillon	OH	44646	39151	Stark	40.7927063	-81.50324306
40.86533782,-73.35960138	Greenlawn	NY	11740	36103	Suffolk	40.86533782	-73.35960138
40.32854521,-75.98923294	West Lawn	PA	19609	42011	Berks	40.32854521	-75.98923294
34.0180384,-86.0815154	Attalla	AL	35954	1055	Etowah	34.0180384	-86.0815154
42.16979,-72.46187	Ludlow	MA	1056	25013	Hampden	42.16979	-72.46187
27.20703909,-81.86236538	Arcadia	FL	34268	12027	De soto	27.20703909	-81.86236538
40.61660254,-75.38997311	Bethlehem	PA	18018	42077	Northampton	40.61660254	-75.38997311
40.69413068,-73.9123389	New York	NY	11237	36047	Kings	40.69413068	-73.9123389
39.13338336,-76.55081698	Green Haven	MD	21060	24003	Anne arundel	39.13338336	-76.55081698
37.9887897,-87.565987	Pigeon	IN	47618	18163	Vanderburgh	37.9887897	-87.565987
40.00438326,-74.88760846	Willingboro	NJ	8046	34005	Burlington	40.00438326	-74.88760846
30.72478494,-95.5153381	Huntsville	TX	77341	48471	Walker	30.72478494	-95.5153381
31.06268016,-97.68929025	Killeen	TX	76542	48027	Bell	31.06268016	-97.68929025
32.57333727,-94.84033238	Longview Northwest	TX	75608	48183	Gregg	32.57333727	-94.84033238
38.60813515,-75.94463442	Secretary	MD	21664	24019	Dorchester	38.60813515	-75.94463442
41.28799895,-72.80126978	Branford Center	CT	6405	9009	New haven	41.28799895	-72.80126978
29.73379266,-95.40678562	Houston	TX	77098	48201	Harris	29.73379266	-95.40678562
43.0818597,-78.91377362	Wheatfield	NY	14304	36063	Niagara	43.0818597	-78.91377362
33.68893437,-117.86491512	Irvine	CA	92707	6059	Orange	33.68893437	-117.86491512
39.90248322,-75.30342578	Glenolden	PA	19036	42045	Delaware	39.90248322	-75.30342578
43.10210958,-87.99789121	Milwaukee	WI	53218	55079	Milwaukee	43.10210958	-87.99789121
33.47831142,-111.91083334	Scottsdale	AZ	85257	4013	Maricopa	33.47831142	-111.91083334
40.42946676,-79.66335804	Municipality of Murrysville	PA	15632	42129	Westmoreland	40.42946676	-79.66335804
41.24692101,-75.87588446	Wilkes-Barre	PA	18701	42079	Luzerne	41.24692101	-75.87588446
38.98207704,-84.52752683	Covington	KY	41012	21117	Kenton	38.98207704	-84.52752683
36.6866903,-121.6210294	Salinas	CA	93905	6053	Monterey	36.6866903	-121.6210294
41.64475358,-83.61470737	Toledo	OH	43434	39095	Lucas	41.64475358	-83.61470737
42.10584102,-72.64746431	West Springfield	MA	1089	25013	Hampden	42.10584102	-72.64746431
39.65087509,-78.92828369	Frostburg	MD	21532	24001	Allegany	39.65087509	-78.92828369
34.71360262,-77.35426719	Jacksonville	NC	28547	37133	Onslow	34.71360262	-77.35426719
36.8019615,-76.26946588	Chesapeake	VA	23324	51550	Chesapeake city	36.8019615	-76.26946588
38.78735647,-76.0730768	Easton	MD	21601	24041	Talbot	38.78735647	-76.0730768
35.5359209,-81.1269056	Ironton	NC	28650	37109	Catawba	35.5359209	-81.1269056
42.44234154,-83.1813294	Detroit	MI	48235	26163	Wayne	42.44234154	-83.1813294
40.67128321,-75.21185699	Williams	PA	18042	42095	Northampton	40.67128321	-75.21185699
41.65676657,-83.47278376	Oregon	OH	43616	39095	Lucas	41.65676657	-83.47278376
45.65749115,-122.51226637	Vancouver	WA	98682	53011	Clark	45.65749115	-122.51226637
28.1996418,-81.1491343	South and East Osceola	FL	34771	12097	Osceola	28.1996418	-81.1491343
40.62246482,-73.73752576	Inwood	NY	11096	36059	Nassau	40.62246482	-73.73752576
35.57754355,-95.47276616	Muskogee Southwest	OK	74450	40101	Muskogee	35.57754355	-95.47276616
37.51900174,-77.36913182	Montrose	VA	23231	51087	Henrico	37.51900174	-77.36913182
34.1014122,-116.39998723	Yucca Valley	CA	92256	6065	San bernardino	34.1014122	-116.39998723
41.86062033,-73.96451729	Esopus	NY	12487	36027	Ulster	41.86062033	-73.96451729
32.48359648,-93.66529161	Bossier City	LA	71112	22015	Bossier	32.48359648	-93.66529161
33.435976,-112.0137319	Phoenix	AZ	85034	4013	Maricopa	33.435976	-112.0137319
40.27470136,-111.72936419	Orem	UT	84058	49049	Utah	40.27470136	-111.72936419
41.49004391,-90.58129559	South Rock Island	IL	61201	17161	Rock island	41.49004391	-90.58129559
32.65623713,-79.94871989	Folly Beach	SC	29439	45019	Charleston	32.65623713	-79.94871989
40.14157584,-75.37332759	West Norriton	PA	19403	42091	Montgomery	40.14157584	-75.37332759
40.0975061,-74.0822199	Brielle	NJ	8730	34029	Monmouth	40.0975061	-74.0822199
38.31948646,-104.62925051	Pueblo	CO	81008	8101	Pueblo	38.31948646	-104.62925051
27.29498853,-82.43674985	Lake Sarasota	FL	34241	12115	Sarasota	27.29498853	-82.43674985
41.43035833,-82.08211471	Sheffield	OH	44036	39093	Lorain	41.43035833	-82.08211471
42.3731307,-88.1532661	Grant	IL	60020	17097	Lake	42.3731307	-88.1532661
42.41771957,-96.41913244	Dakota City	NE	51111	31043	Woodbury	42.41771957	-96.41913244
40.7624629,-73.9823644	Manhattan	NY	10104	36061	New york	40.7624629	-73.9823644
33.79134907,-84.59249277	Mableton	GA	30168	13067	Cobb	33.79134907	-84.59249277
40.05293296,-84.18224969	Troy	OH	45373	39109	Miami	40.05293296	-84.18224969
41.31792293,-81.56506109	Sagamore Hills	OH	44141	39035	Cuyahoga	41.31792293	-81.56506109
41.35086362,-82.06387962	Elyria	OH	44035	39093	Lorain	41.35086362	-82.06387962
32.93911918,-97.06342595	Grapevine	TX	76051	48439	Tarrant	32.93911918	-97.06342595
34.56549087,-82.3574575	Woodville	SC	29697	45045	Anderson	34.56549087	-82.3574575
40.39779909,-75.20729005	Bedminster	PA	18917	42017	Bucks	40.39779909	-75.20729005
34.02176842,-84.33199019	Roswell	GA	30076	13121	Fulton	34.02176842	-84.33199019
39.92265955,-75.25608005	Darby	PA	19023	42045	Delaware	39.92265955	-75.25608005
40.59406735,-74.3621741	Edison	NJ	8820	34023	Middlesex	40.59406735	-74.3621741
42.56974609,-87.91908634	Pleasant Prairie	WI	53171	55059	Kenosha	42.56974609	-87.91908634
39.8654557,-75.4700641	Bethel	PA	19017	42045	Delaware	39.8654557	-75.4700641
41.4325223,-82.1787314	Lorain	OH	44053	39093	Lorain	41.4325223	-82.1787314
40.44767108,-78.38429421	Frankstown	PA	16648	42013	Blair	40.44767108	-78.38429421
33.97405936,-118.24911541	Florence-Graham	CA	90001	6037	Los angeles	33.97405936	-118.24911541
40.87502024,-73.12286081	Stony Brook	NY	11755	36103	Suffolk	40.87502024	-73.12286081
31.99109074,-102.07330222	Midland	TX	79701	48329	Midland	31.99109074	-102.07330222
41.54425956,-87.69098861	Flossmoor	IL	60422	17031	Cook	41.54425956	-87.69098861
40.17975482,-75.49539704	Upper Providence	PA	19468	42091	Montgomery	40.17975482	-75.49539704
41.06264432,-80.67310778	Youngstown	OH	44511	39099	Mahoning	41.06264432	-80.67310778
40.29871633,-74.01178656	West Long Branch	NJ	7764	34025	Monmouth	40.29871633	-74.01178656
29.88474553,-95.4683982	Houston	TX	77038	48201	Harris	29.88474553	-95.4683982
42.95690373,-71.42081003	Manchester	NH	3109	33011	Hillsborough	42.95690373	-71.42081003
41.96133387,-87.99457339	Wood Dale	IL	60191	17043	Du page	41.96133387	-87.99457339
35.92641817,-78.99705272	Triangle	NC	27517	37063	Orange	35.92641817	-78.99705272
46.46972984,-122.8647976	Olequa	WA	98591	53041	Lewis	46.46972984	-122.8647976
35.989826,-79.8779763	Morehead	NC	27282	37081	Guilford	35.989826	-79.8779763
41.84482334,-72.47461827	Vernon	CT	6066	9013	Tolland	41.84482334	-72.47461827
39.91051212,-78.9671011	Brothersvalley	PA	15530	42111	Somerset	39.91051212	-78.9671011
41.39297596,-81.80648211	Brook Park	OH	44142	39035	Cuyahoga	41.39297596	-81.80648211
32.79481114,-96.66919116	Mesquite	TX	75228	48113	Dallas	32.79481114	-96.66919116
38.64848128,-75.6196807	Seaford	DE	19973	10005	Sussex	38.64848128	-75.6196807
30.14498012,-93.25109331	Prien	LA	70605	22019	Calcasieu	30.14498012	-93.25109331
35.23211699,-97.62270332	Newcastle	OK	73065	40087	Mcclain	35.23211699	-97.62270332
42.01263991,-87.99796146	Elk Grove Village	IL	60005	17031	Cook	42.01263991	-87.99796146
45.68392835,-122.57377725	Five Corners	WA	98662	53011	Clark	45.68392835	-122.57377725
33.82703282,-98.70447893	Holliday	TX	76310	48485	Wichita	33.82703282	-98.70447893
41.99968646,-72.59462897	Thompsonville	CT	6082	9003	Hartford	41.99968646	-72.59462897
42.7709766,-87.83681964	Caledonia	WI	53402	55101	Racine	42.7709766	-87.83681964
41.2985256,-81.7117249	North Royalton	OH	44233	39035	Medina	41.2985256	-81.7117249
42.02097449,-93.6901545	Ames	IA	50014	19169	Story	42.02097449	-93.6901545
35.7922645,-83.5559451	Pigeon Forge	TN	37863	47155	Sevier	35.7922645	-83.5559451
39.68901543,-84.21348615	Moraine	OH	45439	39113	Montgomery	39.68901543	-84.21348615
32.74057695,-96.83387791	Dallas	TX	75208	48113	Dallas	32.74057695	-96.83387791
41.76569007,-70.73948025	Wareham	MA	2576	25023	Plymouth	41.76569007	-70.73948025
40.83524754,-72.79079638	Manorville	NY	11949	36103	Suffolk	40.83524754	-72.79079638
40.53258567,-85.67144497	Marion	IN	46953	18053	Grant	40.53258567	-85.67144497
37.68856433,-97.27380971	Wichita	KS	67208	20173	Sedgwick	37.68856433	-97.27380971
40.66513565,-81.1868336	Brown	OH	44644	39019	Carroll	40.66513565	-81.1868336
42.00532015,-87.88772295	Rosemont	IL	60656	17031	Cook	42.00532015	-87.88772295
28.9448603,-81.2543714	Deltona	FL	32706	12127	Volusia	28.9448603	-81.2543714
38.23224957,-84.54485176	Georgetown	KY	40324	21209	Scott	38.23224957	-84.54485176
41.04994678,-75.19289757	Stroud	PA	18335	42089	Monroe	41.04994678	-75.19289757
42.1344657,-70.9024151	Rockland	MA	2370	25023	Plymouth	42.1344657	-70.9024151
42.98528902,-76.34315233	Marcellus	NY	13108	36067	Onondaga	42.98528902	-76.34315233
42.25263565,-77.21845999	Campbell	NY	14821	36101	Steuben	42.25263565	-77.21845999
28.52820253,-81.54975582	Lake Butter	FL	34734	12095	Orange	28.52820253	-81.54975582
29.88473983,-95.46840828	Houston	TX	77038	48201	Harris	29.88473983	-95.46840828
38.99058509,-76.9439789	College Park	MD	20742	24033	Prince georges	38.99058509	-76.9439789
39.9612508,-77.57267151	Greene	PA	17254	42055	Franklin	39.9612508	-77.57267151
39.8660558,-86.2433724	Pike	IN	46268	18097	Marion	39.8660558	-86.2433724
37.27150591,-121.90117663	San Jose	CA	95125	6085	Santa clara	37.27150591	-121.90117663
40.2187852,-74.14666934	Howell	NJ	7727	34025	Monmouth	40.2187852	-74.14666934
47.27125823,-122.46699239	Tacoma	WA	98403	53053	Pierce	47.27125823	-122.46699239
36.10893765,-87.22426143	White Bluff	TN	37187	47043	Dickson	36.10893765	-87.22426143
42.23740201,-71.27963932	Dover	MA	2030	25021	Norfolk	42.23740201	-71.27963932
42.30955924,-71.83497012	Worcester	MA	1609	25027	Worcester	42.30955924	-71.83497012
45.49115597,-122.53872254	Portland	OR	97236	41051	Multnomah	45.49115597	-122.53872254
35.05082587,-85.2921246	Chattanooga	TN	37403	47065	Hamilton	35.05082587	-85.2921246
42.65443286,-83.30373243	Pontiac	MI	48340	26125	Oakland	42.65443286	-83.30373243
32.70066236,-95.87744916	Edgewood	TX	75117	48467	Van zandt	32.70066236	-95.87744916
42.37444691,-71.059214	Boston	MA	2129	25025	Suffolk	42.37444691	-71.059214
42.2912675,-85.40721721	Galesburg	MI	49053	26077	Kalamazoo	42.2912675	-85.40721721
41.5750472,-93.7083629	West Des Moines	IA	50265	19153	Polk	41.5750472	-93.7083629
40.32551545,-74.32848581	Manalapan	NJ	7726	34025	Monmouth	40.32551545	-74.32848581
33.98175071,-118.40877348	Los Angeles	CA	90094	6037	Los angeles	33.98175071	-118.40877348
32.653317,-97.1194239	Arlington	TX	76018	48439	Tarrant	32.653317	-97.1194239
39.5473624,-89.3098218	Taylorville	IL	62556	17021	Christian	39.5473624	-89.3098218
38.76524525,-90.55346819	Spencer Creek	MO	63303	29183	St charles	38.76524525	-90.55346819
33.6031559,-112.1629785	Phoenix	AZ	85304	4013	Maricopa	33.6031559	-112.1629785
36.7259783,-120.0546713	Kerman	CA	93630	6019	Fresno	36.7259783	-120.0546713
43.65991538,-70.2816749	Portland	ME	4102	23005	Cumberland	43.65991538	-70.2816749
35.03002151,-81.01701815	Tega Cay	SC	29708	45091	York	35.03002151	-81.01701815
41.59071369,-73.06785629	Oakville	CT	6779	9009	Litchfield	41.59071369	-73.06785629
40.55033042,-89.62963095	Pekin	IL	61558	17179	Tazewell	40.55033042	-89.62963095
36.08319421,-94.17668968	Fayetteville	AR	72703	5143	Washington	36.08319421	-94.17668968
43.03603402,-78.87343435	North Tonawanda	NY	14120	36063	Niagara	43.03603402	-78.87343435
30.36648394,-97.70501758	Austin	TX	78758	48453	Travis	30.36648394	-97.70501758
33.82375,-116.54314	Palm Springs	CA	92262	6065	Riverside	33.82375	-116.54314
29.43754631,-98.72077063	West Bexar	TX	78253	48029	Bexar	29.43754631	-98.72077063
38.8682477,-76.91179203	Coral Hills	MD	20747	24033	Prince georges	38.8682477	-76.91179203
25.88889,-80.18844	North Miami	FL	33161	12086	Miami-dade	25.88889	-80.18844
41.754329,-87.5877117	Chicago	IL	60649	17031	Cook	41.754329	-87.5877117
46.17040186,-119.14443703	Kennewick	WA	99337	53005	Benton	46.17040186	-119.14443703
41.6384678,-83.4922444	Oregon	OH	43616	39095	Lucas	41.6384678	-83.4922444
38.2138156,-82.9103079	Willard	KY	41181	21043	Carter	38.2138156	-82.9103079
33.78668016,-79.02493313	Red Hill	SC	29597	45051	Horry	33.78668016	-79.02493313
28.1463476,-81.4529119	Poinciana	FL	34758	12097	Osceola	28.1463476	-81.4529119
36.88586718,-76.31537764	Norfolk	VA	23508	51710	Norfolk city	36.88586718	-76.31537764
40.94427609,-74.2274107	Wayne	NJ	7470	34031	Passaic	40.94427609	-74.2274107
41.5012519,-81.67223154	Cleveland	OH	44114	39035	Cuyahoga	41.5012519	-81.67223154
40.64126737,-75.20633162	Williams	PA	18042	42095	Northampton	40.64126737	-75.20633162
37.0538754,-76.4373826	Hampton	VA	23601	51650	Newport news city	37.0538754	-76.4373826
33.41100783,-90.89138572	Leland	MS	38756	28151	Washington	33.41100783	-90.89138572
40.88814995,-73.80387508	Pelham Manor	NY	10803	36119	Westchester	40.88814995	-73.80387508
40.61681684,-75.38995137	Bethlehem	PA	18018	42077	Northampton	40.61681684	-75.38995137
44.36695532,-88.87955608	Royalton	WI	54983	55135	Waupaca	44.36695532	-88.87955608
42.35091703,-71.10805659	Boston	MA	2215	25025	Suffolk	42.35091703	-71.10805659
40.69294894,-73.92014258	New York	NY	11221	36047	Kings	40.69294894	-73.92014258
46.89235436,-102.77315582	Dickinson	ND	58601	38089	Stark	46.89235436	-102.77315582
40.7024203,-75.9992832	East Brunswick	PA	17960	42107	Schuylkill	40.7024203	-75.9992832
40.2896988,-79.8889781	Clairton	PA	15088	42003	Allegheny	40.2896988	-79.8889781
47.52124426,-92.5326843	Virginia	MN	55792	27137	St louis	47.52124426	-92.5326843
40.1372256,-79.9525893	Fallowfield	PA	15022	42125	Washington	40.1372256	-79.9525893
40.90137013,-73.79056594	New Rochelle	NY	10805	36119	Westchester	40.90137013	-73.79056594
41.55949161,-88.06595219	Fairmont	IL	60432	17197	Will	41.55949161	-88.06595219
42.98564066,-84.17563392	Owosso	MI	48867	26155	Shiawassee	42.98564066	-84.17563392
40.81304382,-74.18633357	Bloomfield	NJ	7003	34013	Essex	40.81304382	-74.18633357
40.56720519,-74.34038979	Edison	NJ	8820	34023	Middlesex	40.56720519	-74.34038979
36.1827264,-80.27486105	Winston	NC	27106	37067	Forsyth	36.1827264	-80.27486105
41.06308395,-81.48652382	Akron	OH	44316	39153	Summit	41.06308395	-81.48652382
39.86855139,-75.42386527	Village Green-Green Ridge	PA	19014	42045	Delaware	39.86855139	-75.42386527
35.0036048,-80.86995411	Van Wyck	SC	29715	37119	York	35.0036048	-80.86995411
43.17404141,-76.29114113	Lysander	NY	13027	36067	Onondaga	43.17404141	-76.29114113
38.86975292,-94.84005383	Olathe	KS	66061	20091	Johnson	38.86975292	-94.84005383
44.3975818,-88.17308199	Lawrence	WI	54344	55009	Brown	44.3975818	-88.17308199
45.04507756,-93.34483681	Crystal	MN	55429	27053	Hennepin	45.04507756	-93.34483681
28.31582467,-80.74183381	Rockledge	FL	32955	12009	Brevard	28.31582467	-80.74183381
41.89865989,-87.62388607	Chicago	IL	60611	17031	Cook	41.89865989	-87.62388607
40.81466448,-74.42401148	Hanover	NJ	7981	34027	Morris	40.81466448	-74.42401148
40.96714476,-73.72185079	Harrison	NY	10528	36119	Westchester	40.96714476	-73.72185079
37.59180806,-120.97575978	Ceres	CA	95307	6099	Stanislaus	37.59180806	-120.97575978
40.91466995,-74.28495314	Lincoln Park	NJ	7035	34027	Morris	40.91466995	-74.28495314
39.83462216,-75.42881738	Upper Chichester	PA	19061	42045	Delaware	39.83462216	-75.42881738
41.12708762,-85.09226041	St. Joseph	IN	46865	18003	Allen	41.12708762	-85.09226041
41.14260534,-80.56827962	Hubbard	OH	44425	39155	Trumbull	41.14260534	-80.56827962
32.43845447,-84.93031871	Columbus	GA	31903	13215	Muscogee	32.43845447	-84.93031871
35.1657088,-89.9920705	Memphis	TN	37501	47157	Shelby	35.1657088	-89.9920705
42.00645064,-83.94871451	Tecumseh	MI	49286	26091	Lenawee	42.00645064	-83.94871451
27.9306419,-82.3571835	Palm River-Clair Mel	FL	33619	12057	Hillsborough	27.9306419	-82.3571835
41.80391372,-88.33344556	North Aurora	IL	60542	17089	Kane	41.80391372	-88.33344556
39.85465354,-88.98296091	Decatur	IL	62524	17115	Macon	39.85465354	-88.98296091
33.87259481,-112.13575912	New River	AZ	85087	4013	Maricopa	33.87259481	-112.13575912
41.34878,-82.3109357	Henrietta	OH	44816	39093	Erie	41.34878	-82.3109357
32.8694975,-79.9918314	North Charleston	SC	29405	45019	Charleston	32.8694975	-79.9918314
39.70141808,-104.91264765	Denver	CO	80224	8031	Denver	39.70141808	-104.91264765
41.70570339,-81.33223169	Mentor	OH	44060	39085	Lake	41.70570339	-81.33223169
47.14825656,-122.43445283	Parkland	WA	98447	53053	Pierce	47.14825656	-122.43445283
42.3731313,-88.1532668	Grant	IL	60020	17097	Lake	42.3731313	-88.1532668
42.39705538,-70.96264998	Winthrop	MA	2152	25025	Suffolk	42.39705538	-70.96264998
40.85021218,-73.86051476	New York	NY	10462	36005	Bronx	40.85021218	-73.86051476
42.07577342,-83.22314411	Brownstown	MI	48173	26163	Wayne	42.07577342	-83.22314411
41.24482234,-75.93851604	Plymouth	PA	18651	42079	Luzerne	41.24482234	-75.93851604
35.71659533,-86.97874606	Columbia	TN	37174	47119	Maury	35.71659533	-86.97874606
42.06566971,-89.09819414	Scott	IL	61020	17141	Ogle	42.06566971	-89.09819414
40.7320622,-74.0628692	Jersey City	NJ	7306	34017	Hudson	40.7320622	-74.0628692
37.28446809,-80.00844574	Roanoke	VA	24017	51770	Roanoke city	37.28446809	-80.00844574
41.69032544,-88.22387648	Wheatland	IL	60564	17197	Will	41.69032544	-88.22387648
41.9759225,-88.1793675	Bartlett	IL	60103	17043	Cook	41.9759225	-88.1793675
41.73289324,-87.64325124	Chicago	IL	60620	17031	Cook	41.73289324	-87.64325124
40.64609828,-111.84298751	Cottonwood West	UT	84117	49035	Salt lake	40.64609828	-111.84298751
36.15932222,-115.05143249	Sunrise Manor	NV	89142	32003	Clark	36.15932222	-115.05143249
44.04574549,-88.54942639	Oshkosh	WI	54901	55139	Winnebago	44.04574549	-88.54942639
32.84539015,-97.28789438	Haltom City	TX	76137	48439	Tarrant	32.84539015	-97.28789438
42.7912316,-77.82433354	Geneseo	NY	14454	36051	Livingston	42.7912316	-77.82433354
33.00326132,-96.97040734	Lewisville	TX	75067	48113	Denton	33.00326132	-96.97040734
39.307195,-84.564573	Pleasant Run	OH	45014	39061	Butler	39.307195	-84.564573
35.07335587,-92.45182922	Conway	AR	72032	5045	Faulkner	35.07335587	-92.45182922
40.83971383,-73.38880086	Huntington Station	NY	11740	36103	Suffolk	40.83971383	-73.38880086
38.68678582,-89.91974789	Jarvis	IL	62062	17119	Madison	38.68678582	-89.91974789
39.7276158,-90.2132528	Jacksonville	IL	62650	17137	Morgan	39.7276158	-90.2132528
39.10781016,-84.60086016	Cincinnati	OH	45238	39061	Hamilton	39.10781016	-84.60086016
38.86981568,-94.83984596	Olathe	KS	66061	20091	Johnson	38.86981568	-94.83984596
41.13720286,-73.93315293	Valley Cottage	NY	10920	36087	Rockland	41.13720286	-73.93315293
29.59738447,-98.71100293	West Bexar	TX	78023	48029	Bexar	29.59738447	-98.71100293
39.92265955,-75.25608005	Darby	PA	19023	42045	Delaware	39.92265955	-75.25608005
40.49911864,-74.44746054	New Brunswick	NJ	8901	34023	Middlesex	40.49911864	-74.44746054
44.86548562,-93.54113258	Chanhassen	MN	55317	27019	Carver	44.86548562	-93.54113258
39.29255405,-86.61089731	Bean Blossom	IN	47464	18105	Monroe	39.29255405	-86.61089731
25.91578463,-80.20456052	Golden Glades	FL	33162	12086	Miami-dade	25.91578463	-80.20456052
39.73581431,-75.66412303	Pike Creek-Central Kirkwood	DE	19808	10003	New castle	39.73581431	-75.66412303
41.3769066,-73.76759327	Carmel	NY	10542	36079	Putnam	41.3769066	-73.76759327
36.134588,-115.135764	Winchester	NV	89109	32003	Clark	36.134588	-115.135764
40.59970679,-75.33525042	Bethlehem	PA	18055	42095	Northampton	40.59970679	-75.33525042
41.6897404,-83.5758554	Toledo	OH	43612	39095	Lucas	41.6897404	-83.5758554
40.9708234,-74.2799155	Wayne	NJ	7444	34031	Morris	40.9708234	-74.2799155
46.46978441,-122.86484462	Olequa	WA	98591	53041	Lewis	46.46978441	-122.86484462
43.2249326,-86.2169808	Muskegon	MI	49442	26121	Muskegon	43.2249326	-86.2169808
35.83465875,-96.38582439	Bristow	OK	74010	40037	Creek	35.83465875	-96.38582439
35.3419514,-80.80507535	Charlotte	NC	28036	37119	Mecklenburg	35.3419514	-80.80507535
33.9257707,-85.59964169	Piedmont	AL	36272	1015	Calhoun	33.9257707	-85.59964169
47.08568632,-122.29841204	South Hill	WA	98375	53053	Pierce	47.08568632	-122.29841204
33.61777173,-112.10091806	Phoenix	AZ	85023	4013	Maricopa	33.61777173	-112.10091806
41.6580544,-83.60616745	Toledo	OH	43607	39095	Lucas	41.6580544	-83.60616745
40.06398042,-74.11943007	Brick	NJ	8723	34029	Ocean	40.06398042	-74.11943007
46.46974304,-122.86480372	Olequa	WA	98591	53041	Lewis	46.46974304	-122.86480372
39.78775304,-75.91491669	East Nottingham	PA	19352	42029	Chester	39.78775304	-75.91491669
33.7185834,-117.791052	Irvine	CA	92782	6059	Orange	33.7185834	-117.791052
43.0262397,-82.4912761	Fort Gratiot	MI	48060	26147	St clair	43.0262397	-82.4912761
33.78392383,-79.0258455	Red Hill	SC	29597	45051	Horry	33.78392383	-79.0258455
32.6534221,-97.1198745	Arlington	TX	76018	48439	Tarrant	32.6534221	-97.1198745
39.89553836,-75.28954301	Glenolden	PA	19032	42045	Delaware	39.89553836	-75.28954301
39.01951586,-121.41332338	Wheatland	CA	95681	6101	Placer	39.01951586	-121.41332338
41.74661055,-72.04210086	Hampton	CT	6247	9015	Windham	41.74661055	-72.04210086
39.8131458,-84.2079837	Dayton	OH	45414	39113	Montgomery	39.8131458	-84.2079837
40.8983596,-74.2163941	Totowa	NJ	7512	34031	Passaic	40.8983596	-74.2163941
35.34595288,-97.47080849	Moore	OK	73160	40027	Cleveland	35.34595288	-97.47080849
33.08566418,-97.0425965	Highland Village	TX	75077	48121	Denton	33.08566418	-97.0425965
32.07479788,-102.08111572	Midland	TX	79705	48329	Midland	32.07479788	-102.08111572
40.7554447,-73.99031142	Manhattan	NY	10018	36061	New york	40.7554447	-73.99031142
42.01612217,-87.97374569	Elk Grove Village	IL	60005	17031	Cook	42.01612217	-87.97374569
42.43220693,-83.90125409	Hamburg	MI	48169	26093	Livingston	42.43220693	-83.90125409
38.6256593,-90.0924728	Washington Park	IL	62204	17163	St clair	38.6256593	-90.0924728
32.8626699,-97.01081605	Irving	TX	75038	48113	Dallas	32.8626699	-97.01081605
41.53100827,-83.65931329	Perrysburg	OH	43537	39173	Lucas	41.53100827	-83.65931329
36.114646,-115.172813	Paradise	NV	89109	32003	Clark	36.114646	-115.172813
39.52785,-80.34135	Mannington	WV	26582	54049	Marion	39.52785	-80.34135
42.44111443,-71.03093529	Malden	MA	2148	25017	Middlesex	42.44111443	-71.03093529
29.5477333,-95.1063066	Webster	TX	77508	48201	Harris	29.5477333	-95.1063066
41.37152015,-93.57750387	Indianola	IA	50125	19181	Warren	41.37152015	-93.57750387
40.53375218,-74.15659376	Staten Island	NY	10308	36085	Richmond	40.53375218	-74.15659376
29.64499211,-98.03832733	Guadalupe North	TX	78123	48187	Guadalupe	29.64499211	-98.03832733
35.13581278,-80.88701609	Charlotte	NC	28273	37119	Mecklenburg	35.13581278	-80.88701609
35.56490232,-80.57827326	China Grove	NC	28023	37159	Rowan	35.56490232	-80.57827326
41.95969584,-70.66525906	Plymouth	MA	2018	25023	Plymouth	41.95969584	-70.66525906
40.75613539,-73.98610856	Manhattan	NY	10110	36061	New york	40.75613539	-73.98610856
29.73391972,-95.40676542	Houston	TX	77098	48201	Harris	29.73391972	-95.40676542
35.77717292,-78.63662789	Raleigh	NC	27601	37183	Wake	35.77717292	-78.63662789
32.263688,-110.95144809	Tucson	AZ	85719	4019	Pima	32.263688	-110.95144809
25.91696136,-80.14610603	North Miami	FL	33160	12086	Miami-dade	25.91696136	-80.14610603
33.00318746,-96.53408301	Wylie	TX	75098	48085	Dallas	33.00318746	-96.53408301
42.12342702,-75.95088916	Johnson City	NY	13790	36007	Broome	42.12342702	-75.95088916
40.69425979,-73.9135708	New York	NY	11237	36047	Kings	40.69425979	-73.9135708
37.33126892,-77.36927239	Bermuda	VA	23831	51041	Chesterfield	37.33126892	-77.36927239
41.17435377,-75.36999371	Coolbaugh	PA	18466	42089	Monroe	41.17435377	-75.36999371
32.40890962,-111.02117251	Oro Valley	AZ	85742	4019	Pima	32.40890962	-111.02117251
40.74868945,-73.86996754	Queens	NY	11368	36081	Queens	40.74868945	-73.86996754
42.3731307,-88.1532661	Grant	IL	60020	17097	Lake	42.3731307	-88.1532661
32.70066236,-95.87744916	Edgewood	TX	75117	48467	Van zandt	32.70066236	-95.87744916
29.9418193,-90.1027767	New Orleans	LA	70125	22071	Orleans	29.9418193	-90.1027767
35.41426367,-81.01140076	Lowesville	NC	28006	37109	Gaston	35.41426367	-81.01140076
34.23837504,-118.4685205	Los Angeles	CA	91343	6037	Los angeles	34.23837504	-118.4685205
42.5798168,-87.8536912	Kenosha	WI	53143	55059	Kenosha	42.5798168	-87.8536912
40.94827522,-81.35620191	Lake	OH	44630	39151	Stark	40.94827522	-81.35620191
42.51825491,-90.70772606	Dubuque	IA	52002	19061	Dubuque	42.51825491	-90.70772606
40.17833753,-75.17908155	Philadelphia	PA	19044	42091	Montgomery	40.17833753	-75.17908155
36.05058819,-96.01004899	Tulsa	OK	74132	40143	Tulsa	36.05058819	-96.01004899
42.03493855,-87.71195996	Skokie	IL	60203	17031	Cook	42.03493855	-87.71195996
41.22422779,-80.80525511	Warren	OH	44484	39155	Trumbull	41.22422779	-80.80525511
40.28240078,-74.24803739	East Freehold	NJ	7709	34025	Monmouth	40.28240078	-74.24803739
25.78049427,-80.40455365	Tamiami	FL	33182	12086	Miami-dade	25.78049427	-80.40455365
34.78381991,-86.57366036	Huntsville	AL	35811	1089	Madison	34.78381991	-86.57366036
40.0773886,-74.9692203	Philadelphia	PA	19114	42101	Philadelphia	40.0773886	-74.9692203
26.56083852,-80.0748067	Boynton Beach	FL	33462	12099	Palm beach	26.56083852	-80.0748067
38.7711083,-90.2716065	Ferguson	MO	63033	29189	St louis	38.7711083	-90.2716065
41.92612795,-87.63067586	Chicago	IL	60614	17031	Cook	41.92612795	-87.63067586
44.74166425,-91.38505108	Washington	WI	54702	55035	Eau claire	44.74166425	-91.38505108
35.0905424,-80.85291804	Charlotte	NC	28247	37119	Mecklenburg	35.0905424	-80.85291804
40.78272328,-73.98055403	Manhattan	NY	10024	36061	New york	40.78272328	-73.98055403
40.14041411,-74.2562349	Jackson	NJ	7731	34029	Monmouth	40.14041411	-74.2562349
32.47330641,-84.98880166	Columbus	GA	31901	13215	Muscogee	32.47330641	-84.98880166
30.45097114,-81.71796875	Jacksonville	FL	32218	12031	Duval	30.45097114	-81.71796875
42.79196297,-77.82029979	Geneseo	NY	14454	36051	Livingston	42.79196297	-77.82029979
38.16282129,-85.85606857	Pleasure Ridge Park	KY	40258	21111	Jefferson	38.16282129	-85.85606857
47.49104655,-111.30195299	Great Falls	MT	59401	30013	Cascade	47.49104655	-111.30195299
41.6583525,-83.6825007	Toledo	OH	43528	39095	Lucas	41.6583525	-83.6825007
39.9305812,-75.3922291	Upper Providence Township	PA	19065	42045	Delaware	39.9305812	-75.3922291
40.83571318,-74.22676137	Verona	NJ	7044	34013	Essex	40.83571318	-74.22676137
34.17244419,-97.12114263	Ardmore	OK	73401	40019	Carter	34.17244419	-97.12114263
32.9062933,-96.6487796	Garland	TX	75045	48113	Dallas	32.9062933	-96.6487796
40.78805864,-73.21167775	Central Islip	NY	11722	36103	Suffolk	40.78805864	-73.21167775
37.32820198,-89.52238595	Cape Girardea	MO	63701	29031	Cape girardeau	37.32820198	-89.52238595
40.0205936,-75.1570153	Philadelphia	PA	19140	42101	Philadelphia	40.0205936	-75.1570153
37.05646788,-76.4195798	Hampton	VA	23666	51650	Hampton city	37.05646788	-76.4195798
43.06491538,-87.94779829	Milwaukee	WI	53205	55079	Milwaukee	43.06491538	-87.94779829
42.18648374,-71.69945762	Grafton	MA	1560	25027	Worcester	42.18648374	-71.69945762
40.55573611,-74.2716927	Woodbridge	NJ	7077	34023	Middlesex	40.55573611	-74.2716927
25.77558548,-80.35104074	Fountainblea	FL	33172	12086	Miami-dade	25.77558548	-80.35104074
41.39631206,-81.62717109	Valley View	OH	44131	39035	Cuyahoga	41.39631206	-81.62717109
37.69615875,-122.12064615	Ashland	CA	94578	6001	Alameda	37.69615875	-122.12064615
29.52799468,-95.17544098	Friendswood	TX	77546	48201	Galveston	29.52799468	-95.17544098
43.06072664,-87.89497849	Milwaukee	WI	53202	55079	Milwaukee	43.06072664	-87.89497849
25.91570219,-80.20448961	Golden Glades	FL	33162	12086	Miami-dade	25.91570219	-80.20448961
35.95202927,-79.0745481	Chapel Hill	NC	27516	37135	Orange	35.95202927	-79.0745481
42.67329969,-83.30809403	Pontiac	MI	48340	26125	Oakland	42.67329969	-83.30809403
43.1596996,-77.60963669	Rochester	NY	14604	36055	Monroe	43.1596996	-77.60963669
41.5531284,-90.4875017	Bettendorf	IA	52722	19163	Scott	41.5531284	-90.4875017
40.66201,-73.962499	New York	NY	11225	36047	Kings	40.66201	-73.962499
37.65747573,-122.39741668	South San Francisco	CA	94080	6081	San mateo	37.65747573	-122.39741668
37.6960253,-97.2994538	Wichita	KS	67214	20173	Sedgwick	37.6960253	-97.2994538
30.43734777,-81.58027584	Jacksonville	FL	32218	12031	Duval	30.43734777	-81.58027584
40.82201323,-73.1607776	Hauppauge	NY	11749	36103	Suffolk	40.82201323	-73.1607776
32.31816344,-95.25357415	Tyler	TX	75707	48423	Smith	32.31816344	-95.25357415
37.4409,-77.47401	Dale	VA	23234	51041	Chesterfield	37.4409	-77.47401
40.70119601,-74.20186067	Newark	NJ	7114	34013	Essex	40.70119601	-74.20186067
29.85471473,-97.85994027	Martindale	TX	78655	48055	Caldwell	29.85471473	-97.85994027
40.61719157,-79.1559356	Indiana	PA	15701	42063	Indiana	40.61719157	-79.1559356
43.0015829,-88.2261774	Waukesha	WI	53186	55133	Waukesha	43.0015829	-88.2261774
34.39926158,-119.29530794	Oak View	CA	93022	6111	Ventura	34.39926158	-119.29530794
39.83704039,-86.17375284	Indianapolis	IN	46208	18097	Marion	39.83704039	-86.17375284
40.70568542,-112.03209342	West Valley City	UT	84128	49035	Salt lake	40.70568542	-112.03209342
46.4842369,-84.3450901	Sault Ste. Marie	MI	49778	26033	Chippewa	46.4842369	-84.3450901
45.5689963,-94.1951966	St. Cloud	MN	56303	27145	Stearns	45.5689963	-94.1951966
42.6519356,-71.32061051	Lowell	MA	1854	25017	Middlesex	42.6519356	-71.32061051
44.76002297,-93.5055041	Shakopee	MN	55372	27139	Scott	44.76002297	-93.5055041
41.37282944,-81.84810638	Berea	OH	44017	39035	Cuyahoga	41.37282944	-81.84810638
41.70046143,-83.56991242	Toledo	OH	43612	39095	Lucas	41.70046143	-83.56991242
33.44527681,-84.43687205	Fayetteville	GA	30214	13113	Fayette	33.44527681	-84.43687205
40.73895182,-73.48410672	Bethpage	NY	11714	36059	Nassau	40.73895182	-73.48410672
40.21134908,-74.73319064	Hamilton	NJ	8629	34021	Mercer	40.21134908	-74.73319064
32.78684692,-97.36657617	Fort Worth	TX	76164	48439	Tarrant	32.78684692	-97.36657617
26.13720545,-80.41848304	Weston	FL	33327	12011	Broward	26.13720545	-80.41848304
42.38108936,-72.52992586	Amherst	MA	1003	25015	Hampshire	42.38108936	-72.52992586
34.02020408,-118.11932504	Montebello	CA	90640	6037	Los angeles	34.02020408	-118.11932504
38.36746555,-89.03683157	Casner	IL	62898	17081	Jefferson	38.36746555	-89.03683157
34.06652195,-117.97394847	Baldwin Park	CA	91746	6037	Los angeles	34.06652195	-117.97394847
40.73552942,-73.67067944	Garden City Park	NY	11040	36059	Nassau	40.73552942	-73.67067944
32.3613078,-84.932572	Fort Benning South	GA	31905	13215	Muscogee	32.3613078	-84.932572
46.46970025,-122.86484554	Olequa	WA	98591	53041	Lewis	46.46970025	-122.86484554
34.15054975,-118.61348461	Los Angeles	CA	91364	6037	Los angeles	34.15054975	-118.61348461
41.37623447,-83.63554305	Bowling Green	OH	43403	39173	Wood	41.37623447	-83.63554305
30.62118327,-96.30833954	College Station	TX	77840	48041	Brazos	30.62118327	-96.30833954
40.08965087,-75.24442088	Whitemarsh	PA	19444	42091	Montgomery	40.08965087	-75.24442088
42.24609068,-71.90882985	Leicester	MA	1524	25027	Worcester	42.24609068	-71.90882985
31.8512732,-102.3645587	Odessa	TX	79761	48135	Ector	31.8512732	-102.3645587
32.6132517,-97.1242932	Arlington	TX	76001	48439	Tarrant	32.6132517	-97.1242932
41.49171949,-81.8078041	Lakewood	OH	44107	39035	Cuyahoga	41.49171949	-81.8078041
42.98037966,-71.41117519	Manchester	NH	3109	33011	Hillsborough	42.98037966	-71.41117519
41.39447666,-81.74056163	Parma	OH	44129	39035	Cuyahoga	41.39447666	-81.74056163
40.282878,-74.00482616	West Long Branch	NJ	7764	34025	Monmouth	40.282878	-74.00482616
45.10330377,-93.44809913	Maple Grove	MN	55369	27053	Hennepin	45.10330377	-93.44809913
40.86220529,-74.40557095	Parsippany-Troy Hills	NJ	7054	34027	Morris	40.86220529	-74.40557095
42.3093,-83.1203632	Detroit	MI	48209	26163	Wayne	42.3093	-83.1203632
41.55115794,-87.23542157	Hobart	IN	46405	18089	Lake	41.55115794	-87.23542157
32.62077211,-85.4597238	Auburn	AL	36849	1081	Lee	32.62077211	-85.4597238
43.03562535,-82.47801907	Fort Gratiot	MI	48060	26147	St clair	43.03562535	-82.47801907
40.41220004,-74.41566858	East Brunswick	NJ	8816	34023	Middlesex	40.41220004	-74.41566858
34.59321711,-98.45071027	Lawton	OK	73505	40031	Comanche	34.59321711	-98.45071027
34.16087997,-118.37310953	Los Angeles	CA	91601	6037	Los angeles	34.16087997	-118.37310953
41.34501144,-88.83737097	Ottawa	IL	61350	17099	La salle	41.34501144	-88.83737097
45.68068834,-122.67249256	Hazel Dell North	WA	98665	53011	Clark	45.68068834	-122.67249256
41.28233236,-95.99179096	Omaha	NE	68104	31055	Douglas	41.28233236	-95.99179096
40.80364008,-81.40570444	Canton	OH	44710	39151	Stark	40.80364008	-81.40570444
41.7031754,-81.384227	Mentor	OH	44060	39085	Lake	41.7031754	-81.384227
32.31603418,-90.18732319	Jackson	MS	39202	28049	Hinds	32.31603418	-90.18732319
36.0399812,-86.7690755	Nashville	TN	37220	47037	Davidson	36.0399812	-86.7690755
40.13518565,-84.24963753	Piqua	OH	45356	39109	Miami	40.13518565	-84.24963753
40.24216031,-76.80944466	Swatara	PA	17113	42043	Dauphin	40.24216031	-76.80944466
41.03816032,-81.63240851	Norton	OH	44203	39153	Summit	41.03816032	-81.63240851
43.00074833,-78.19694527	Batavia	NY	14020	36037	Genesee	43.00074833	-78.19694527
41.52788977,-72.80419625	Meriden	CT	6450	9009	New haven	41.52788977	-72.80419625
33.3095736,-111.8474277	Chandler	AZ	85225	4013	Maricopa	33.3095736	-111.8474277
26.0835467,-97.1818979	East Cameron	TX	78578	48061	Cameron	26.0835467	-97.1818979
42.38453128,-72.52976471	Amherst	MA	1003	25015	Hampshire	42.38453128	-72.52976471
37.6265942,-77.32942202	Mechanicsville	VA	23111	51085	Hanover	37.6265942	-77.32942202
42.4177847,-96.41941306	Dakota City	NE	51111	31043	Woodbury	42.4177847	-96.41941306
41.90876006,-70.98113498	Middleborough	MA	2346	25023	Plymouth	41.90876006	-70.98113498
40.25687563,-111.66681347	Provo	UT	84604	49049	Utah	40.25687563	-111.66681347
41.76537999,-70.7394722	Wareham	MA	2576	25023	Plymouth	41.76537999	-70.7394722
40.8340298,-74.1604543	Nutley	NJ	7012	34013	Passaic	40.8340298	-74.1604543
35.65729163,-78.57649336	St. Marys	NC	27529	37183	Wake	35.65729163	-78.57649336
37.73930311,-84.29984288	Richmond	KY	40475	21151	Madison	37.73930311	-84.29984288
41.37852335,-73.69043605	Carmel	NY	10519	36079	Westchester	41.37852335	-73.69043605
36.35240052,-94.13154403	Rogers	AR	72756	5007	Benton	36.35240052	-94.13154403
38.755429,-90.2265132	Bellefontaine Neighbors	MO	63137	29189	St louis	38.755429	-90.2265132
42.16005504,-71.08183732	Canton	MA	2027	25021	Norfolk	42.16005504	-71.08183732
30.22666424,-93.01633848	Iowa	LA	70647	22019	Calcasieu	30.22666424	-93.01633848
41.3236693,-75.789247	Pittston	PA	18640	42079	Luzerne	41.3236693	-75.789247
40.85027031,-73.86048524	New York	NY	10462	36005	Bronx	40.85027031	-73.86048524
33.759348,-78.819416	Myrtle Beach	SC	29572	45051	Horry	33.759348	-78.819416
41.6747011,-83.6209814	Toledo	OH	43606	39095	Lucas	41.6747011	-83.6209814
40.7199864,-73.5345529	Levittown	NY	11756	36059	Nassau	40.7199864	-73.5345529
43.3947327,-88.1737429	West Bend	WI	53037	55131	Washington	43.3947327	-88.1737429
41.89870307,-88.20753363	West Chicago	IL	60185	17043	Du page	41.89870307	-88.20753363
39.64833759,-84.09127476	Bellbrook	OH	45305	39057	Greene	39.64833759	-84.09127476
33.59071439,-101.86992524	Lubbock	TX	79401	48303	Lubbock	33.59071439	-101.86992524
33.34295503,-82.07338615	Augusta-Richmond County	GA	30815	13245	Richmond	33.34295503	-82.07338615
42.4703931,-70.95654315	Lynn	MA	1902	25009	Essex	42.4703931	-70.95654315
39.4842447,-88.2482157	Charleston	IL	62440	17029	Coles	39.4842447	-88.2482157
41.0629743,-81.4453767	Akron	OH	44305	39153	Summit	41.0629743	-81.4453767
41.30049068,-73.25245422	Monroe	CT	6611	9001	Fairfield	41.30049068	-73.25245422
34.04103598,-118.31107146	Los Angeles	CA	90018	6037	Los angeles	34.04103598	-118.31107146
39.84507289,-75.42865293	Upper Chichester	PA	19061	42045	Delaware	39.84507289	-75.42865293
40.7917998,-74.23428378	West Orange	NJ	7007	34013	Essex	40.7917998	-74.23428378
41.7422125,-80.7702074	Jefferson	OH	44047	39007	Ashtabula	41.7422125	-80.7702074
47.80754615,-122.19962299	Bothell	WA	98021	53061	Snohomish	47.80754615	-122.19962299
47.08522606,-122.31366634	South Hill	WA	98375	53053	Pierce	47.08522606	-122.31366634
40.83316038,-74.2728459	Caldwell	NJ	7021	34013	Essex	40.83316038	-74.2728459
32.72335986,-85.19804053	Beulah	AL	36852	1017	Chambers	32.72335986	-85.19804053
40.82404158,-72.82952365	Manorville	NY	11955	36103	Suffolk	40.82404158	-72.82952365
41.38258503,-71.60437758	South Kingstown	RI	2854	44009	Washington	41.38258503	-71.60437758
41.74065147,-87.97518767	Darien	IL	60561	17043	Du page	41.74065147	-87.97518767
35.7397285,-81.2978528	Hickory	NC	28601	37035	Catawba	35.7397285	-81.2978528
41.53959795,-83.61725818	Perrysburg	OH	43551	39173	Wood	41.53959795	-83.61725818
41.15582351,-81.64740348	Montrose-Ghent	OH	44333	39153	Summit	41.15582351	-81.64740348
39.88260185,-75.10487409	Gloucester City	NJ	8059	34007	Camden	39.88260185	-75.10487409
37.07263977,-76.31459118	Hampton	VA	23664	51650	Hampton city	37.07263977	-76.31459118
39.6081429,-104.7283614	South Aurora	CO	80016	8005	Arapahoe	39.6081429	-104.7283614
42.47314354,-73.81405913	Ravena	NY	12143	36001	Albany	42.47314354	-73.81405913
41.92228812,-87.71224653	Chicago	IL	60647	17031	Cook	41.92228812	-87.71224653
38.9773442,-76.51462086	Annapolis	MD	21401	24003	Anne arundel	38.9773442	-76.51462086
33.64744588,-112.3761085	Surprise	AZ	85375	4013	Maricopa	33.64744588	-112.3761085
45.55443142,-94.14816156	St. Cloud	MN	56304	27145	Stearns	45.55443142	-94.14816156
40.3863347,-79.75690093	Trafford	PA	15140	42129	Allegheny	40.3863347	-79.75690093
41.42724656,-81.64306687	Cuyahoga Heights	OH	44125	39035	Cuyahoga	41.42724656	-81.64306687
42.70492943,-82.96175798	Macomb	MI	48042	26099	Macomb	42.70492943	-82.96175798
42.00726065,-88.05702072	Elk Grove Village	IL	60172	17031	Du page	42.00726065	-88.05702072
40.83140143,-74.70934651	Mount Olive	NJ	7836	34027	Morris	40.83140143	-74.70934651
41.2706527,-72.9470471	West Haven	CT	6516	9009	New haven	41.2706527	-72.9470471
40.76849776,-72.83678049	Mastic Beach	NY	11951	36103	Suffolk	40.76849776	-72.83678049
40.73848603,-73.78168016	Queens	NY	11365	36081	Queens	40.73848603	-73.78168016
41.23558997,-81.81716594	Brunswick	OH	44212	39103	Medina	41.23558997	-81.81716594
42.98896997,-75.25518193	Paris	NY	13456	36065	Oneida	42.98896997	-75.25518193
41.53898054,-93.64063019	Des Moines	IA	50315	19153	Polk	41.53898054	-93.64063019
33.98257962,-81.084876	West Columbia	SC	29169	45063	Lexington	33.98257962	-81.084876
39.42325135,-76.322872	Edgewood	MD	21040	24025	Harford	39.42325135	-76.322872
40.74717702,-73.54794272	Hicksville	NY	11590	36059	Nassau	40.74717702	-73.54794272
40.84440014,-81.38832673	Canton	OH	44709	39151	Stark	40.84440014	-81.38832673
40.99490509,-74.18673108	Wyckoff	NJ	7417	34003	Bergen	40.99490509	-74.18673108
25.4653104,-80.4912784	Homestead	FL	33030	12086	Miami-dade	25.4653104	-80.4912784
40.4116926,-74.13509789	Middletown	NJ	7748	34025	Monmouth	40.4116926	-74.13509789
38.163236,-84.903274	Frankfort	KY	40601	21073	Franklin	38.163236	-84.903274
33.7516986,-84.5163854	Atlanta	GA	30318	13121	Fulton	33.7516986	-84.5163854
40.29225406,-74.01449894	West Long Branch	NJ	7764	34025	Monmouth	40.29225406	-74.01449894
29.72780077,-95.36581236	Houston	TX	77004	48201	Harris	29.72780077	-95.36581236
35.9178509,-81.531403	Lenoir	NC	28645	37027	Caldwell	35.9178509	-81.531403
35.16798513,-80.80670882	Charlotte	NC	28211	37119	Mecklenburg	35.16798513	-80.80670882
40.79621462,-77.86687634	State College	PA	16802	42027	Centre	40.79621462	-77.86687634
29.62368454,-95.24262495	Houston	TX	77075	48201	Harris	29.62368454	-95.24262495
40.61617116,-75.38990841	Bethlehem	PA	18018	42077	Northampton	40.61617116	-75.38990841
45.62289327,-122.58299075	Vancouver	WA	98664	53011	Clark	45.62289327	-122.58299075
36.7457422,-119.76286122	Fresno	CA	93702	6019	Fresno	36.7457422	-119.76286122
38.6255086,-90.0921729	Washington Park	IL	62204	17163	St clair	38.6255086	-90.0921729
64.83593185,-147.78986544	Fairbanks	AK	99775	2090	Fairbanks north star	64.83593185	-147.78986544
41.60604038,-72.85267959	Southington	CT	6489	9003	Hartford	41.60604038	-72.85267959
30.52678671,-97.809667	Cedar Park	TX	78613	48491	Williamson	30.52678671	-97.809667
32.9421585,-80.1409987	North Charleston	SC	29420	45035	Dorchester	32.9421585	-80.1409987
34.92333279,-85.32496952	Chattanooga Valley	GA	30725	13295	Walker	34.92333279	-85.32496952
39.2063305,-84.40507494	Deer Park	OH	45236	39061	Hamilton	39.2063305	-84.40507494
39.03481385,-94.21064293	Sni-A-Bar	MO	64029	29095	Jackson	39.03481385	-94.21064293
42.20370475,-71.82367952	Auburn	MA	1501	25027	Worcester	42.20370475	-71.82367952
42.36887276,-71.08124689	Cambridge	MA	2141	25017	Middlesex	42.36887276	-71.08124689
41.23906966,-82.1235997	Lagrange	OH	44050	39093	Lorain	41.23906966	-82.1235997
30.454478,-86.633621	Wright	FL	32547	12091	Okaloosa	30.454478	-86.633621
42.33164111,-83.27678291	Dearborn Heights	MI	48127	26163	Wayne	42.33164111	-83.27678291
40.62257814,-75.46280164	Allentown	PA	18102	42077	Lehigh	40.62257814	-75.46280164
40.45867885,-87.68132554	Hoopeston	IL	60942	17183	Vermilion	40.45867885	-87.68132554
44.97051239,-93.23039722	Minneapolis	MN	55455	27053	Hennepin	44.97051239	-93.23039722
40.60880024,-79.93962567	Hampton Township	PA	15044	42003	Allegheny	40.60880024	-79.93962567
40.76247009,-73.46526411	Old Bethpage	NY	11804	36059	Nassau	40.76247009	-73.46526411
40.63051428,-74.13683984	Staten Island	NY	10302	36085	Richmond	40.63051428	-74.13683984
27.4847619,-82.5573441	Samoset	FL	34205	12081	Manatee	27.4847619	-82.5573441
34.1226994,-117.9125504	Azusa	CA	91702	6037	Los angeles	34.1226994	-117.9125504
40.26405042,-79.71049094	Herminie	PA	15678	42129	Westmoreland	40.26405042	-79.71049094
42.43791166,-79.33158405	Fredonia	NY	14063	36013	Chautauqua	42.43791166	-79.33158405
27.9468157,-81.95225447	Lakeland Highlands	FL	33860	12105	Polk	27.9468157	-81.95225447
42.8980938,-77.29110501	Canandaigua	NY	14425	36069	Ontario	42.8980938	-77.29110501
42.3731662,-88.1532668	Grant	IL	60020	17097	Lake	42.3731662	-88.1532668
39.65676599,-104.86632459	Denver	CO	80014	8031	Arapahoe	39.65676599	-104.86632459
33.08417711,-96.65986732	Allen	TX	75002	48085	Collin	33.08417711	-96.65986732
40.12545784,-79.46864906	Bullskin	PA	15666	42129	Westmoreland	40.12545784	-79.46864906
41.91061569,-71.90388721	Putnam District	CT	6260	9015	Windham	41.91061569	-71.90388721
41.3502504,-82.8435913	Groton	OH	44824	39143	Erie	41.3502504	-82.8435913
38.67076934,-86.79606303	Shoals	IN	47469	18101	Orange	38.67076934	-86.79606303
43.21292053,-77.94143016	Brockport	NY	14420	36055	Monroe	43.21292053	-77.94143016
26.15757315,-80.29155304	Sunrise	FL	33345	12011	Broward	26.15757315	-80.29155304
38.73274034,-82.98590252	Portsmouth	OH	41174	39145	Greenup	38.73274034	-82.98590252
44.0431942,-88.5336643	Oshkosh	WI	54901	55139	Winnebago	44.0431942	-88.5336643
37.76045832,-84.29222041	Richmond	KY	40475	21151	Madison	37.76045832	-84.29222041
33.87847672,-118.20248089	Long Beach	CA	90221	6037	Los angeles	33.87847672	-118.20248089
36.9749919,-86.4593059	Bowling Green	KY	42104	21227	Warren	36.9749919	-86.4593059
39.829453,-75.2457804	Paulsboro	NJ	8027	34015	Gloucester	39.829453	-75.2457804
40.63635196,-75.49976265	Fullerton	PA	18052	42077	Lehigh	40.63635196	-75.49976265
38.755429,-90.2265132	Bellefontaine Neighbors	MO	63137	29189	St louis	38.755429	-90.2265132
41.73251338,-93.59398455	Ankeny	IA	50021	19153	Polk	41.73251338	-93.59398455
39.87659358,-84.10752978	Huber Heights	OH	45424	39113	Montgomery	39.87659358	-84.10752978
39.06764417,-94.35533094	Independence	MO	64057	29095	Jackson	39.06764417	-94.35533094
39.4746793,-74.9799436	Vineland	NJ	8361	34011	Cumberland	39.4746793	-74.9799436
41.6785706,-73.0056199	Terryville	CT	6786	9005	Litchfield	41.6785706	-73.0056199
40.8705085,-74.1063041	Garfield	NJ	7026	34003	Bergen	40.8705085	-74.1063041
41.7950302,-87.6618712	Chicago	IL	60609	17031	Cook	41.7950302	-87.6618712
40.8622313,-74.36390799	Parsippany-Troy Hills	NJ	7058	34027	Morris	40.8622313	-74.36390799
40.71506054,-73.6037811	East Garden City	NY	11549	36059	Nassau	40.71506054	-73.6037811
47.6546869,-122.3173407	Seattle	WA	98195	53033	King	47.6546869	-122.3173407
40.94429514,-73.81626532	Eastchester	NY	10709	36119	Westchester	40.94429514	-73.81626532
29.37077608,-98.43810146	San Antonio	TX	78210	48029	Bexar	29.37077608	-98.43810146
35.06190899,-85.13894734	Chattanooga	TN	37421	47065	Hamilton	35.06190899	-85.13894734
41.86630493,-88.15731965	Winfield	IL	60190	17043	Du page	41.86630493	-88.15731965
42.17485229,-72.48977839	Ludlow	MA	1056	25013	Hampden	42.17485229	-72.48977839
38.17166619,-85.66317321	Newburg	KY	40218	21111	Jefferson	38.17166619	-85.66317321
33.56551751,-82.33798337	Appling	GA	30806	13073	Mcduffie	33.56551751	-82.33798337
43.01113332,-87.91809655	Milwaukee	WI	53204	55079	Milwaukee	43.01113332	-87.91809655
40.91125977,-73.90710105	New York	NY	10471	36005	Bronx	40.91125977	-73.90710105
26.06733295,-80.39144061	Weston	FL	33332	12011	Broward	26.06733295	-80.39144061
38.59295905,-121.41403198	Arden-Arcade	CA	95825	6067	Sacramento	38.59295905	-121.41403198
42.82141577,-73.93231983	Schenectady	NY	12305	36093	Schenectady	42.82141577	-73.93231983
40.60063,-74.00257	New York	NY	11214	36047	Kings	40.60063	-74.00257
41.78868185,-90.2227179	Albany	IL	61230	19045	Whiteside	41.78868185	-90.2227179
41.96317217,-73.43963198	Salisbury	CT	6039	9005	Litchfield	41.96317217	-73.43963198
38.83801857,-77.30509794	Fairfax	VA	20122	51510	Fairfax	38.83801857	-77.30509794
40.4946322,-86.129657	Kokomo	IN	46903	18067	Howard	40.4946322	-86.129657
40.81960618,-73.59236998	Brookville	NY	11545	36059	Nassau	40.81960618	-73.59236998
33.86195746,-117.73860868	Anaheim	CA	92808	6059	Orange	33.86195746	-117.73860868
38.88161697,-94.5358704	Grandview	MO	64030	29095	Jackson	38.88161697	-94.5358704
31.3145137,-92.4499708	Alexandria	LA	71361	22079	Rapides	31.3145137	-92.4499708
33.40381114,-111.89869987	Tempe	AZ	85280	4013	Maricopa	33.40381114	-111.89869987
39.93506015,-83.20042457	Prairie	OH	43119	39049	Franklin	39.93506015	-83.20042457
34.0766452,-118.29875976	Los Angeles	CA	90004	6037	Los angeles	34.0766452	-118.29875976
27.41373751,-80.32186174	Fort Pierce	FL	34982	12111	St lucie	27.41373751	-80.32186174
29.88474316,-95.46841018	Houston	TX	77038	48201	Harris	29.88474316	-95.46841018
41.74671742,-71.31984509	Barrington	RI	2806	44001	Bristol	41.74671742	-71.31984509
42.67425523,-71.33582442	Dracut	MA	1826	25017	Middlesex	42.67425523	-71.33582442
47.89301945,-122.17633925	Seattle Hill-Silver Firs	WA	98208	53061	Snohomish	47.89301945	-122.17633925
33.77266777,-84.3918983	Atlanta	GA	30313	13121	Fulton	33.77266777	-84.3918983
42.94623293,-87.99543324	Greendale	WI	53129	55079	Milwaukee	42.94623293	-87.99543324
28.04480111,-82.6060187	Westchase	FL	33626	12057	Hillsborough	28.04480111	-82.6060187
41.7973809,-90.2593083	Camanche	IA	52730	19045	Clinton	41.7973809	-90.2593083
25.8594258,-80.2740135	Hialeah	FL	33013	12086	Miami-dade	25.8594258	-80.2740135
38.52222597,-75.22868595	Frankford	DE	19945	10005	Sussex	38.52222597	-75.22868595
41.5669799,-87.3057685	Gary	IN	46407	18089	Lake	41.5669799	-87.3057685
35.64768391,-97.49419837	Edmond	OK	73034	40109	Oklahoma	35.64768391	-97.49419837
41.13714133,-95.96128338	Bellevue	NE	68147	31153	Sarpy	41.13714133	-95.96128338
34.74991859,-92.28205201	Little Rock	AR	72201	5119	Pulaski	34.74991859	-92.28205201
35.127361,-85.0182285	West Bradley	TN	37353	47065	Bradley	35.127361	-85.0182285
30.40252135,-89.00280226	Gulfport	MS	39507	28047	Harrison	30.40252135	-89.00280226
39.34387787,-75.8822729	Galena	MD	21635	24029	Kent	39.34387787	-75.8822729
37.3002943,-120.467014	Merced	CA	95340	6047	Merced	37.3002943	-120.467014
33.37454702,-112.57404163	Buckeye	AZ	85326	4013	Maricopa	33.37454702	-112.57404163
40.60031262,-74.49580587	Green Brook	NJ	8846	34035	Middlesex	40.60031262	-74.49580587
41.70791923,-71.94160754	Plainfield	CT	6332	9015	Windham	41.70791923	-71.94160754
43.13587809,-76.14528616	North Syracuse	NY	13220	36067	Onondaga	43.13587809	-76.14528616
33.04882075,-96.64343066	Plano	TX	75002	48085	Collin	33.04882075	-96.64343066
46.46967775,-122.86481537	Olequa	WA	98591	53041	Lewis	46.46967775	-122.86481537
39.65793039,-75.09200184	Clayton	NJ	8312	34015	Gloucester	39.65793039	-75.09200184
41.59610045,-88.09370125	Crest Hill	IL	60441	17197	Will	41.59610045	-88.09370125
42.73107674,-84.46855542	East Lansing	MI	48825	26065	Ingham	42.73107674	-84.46855542
30.7247509,-95.5153171	Huntsville	TX	77341	48471	Walker	30.7247509	-95.5153171
41.62766366,-88.16971634	Plainfield	IL	60544	17197	Will	41.62766366	-88.16971634
41.47822114,-87.74058495	Richton Park	IL	60471	17031	Cook	41.47822114	-87.74058495
41.30537183,-73.84568078	Lake Mohegan	NY	10517	36119	Westchester	41.30537183	-73.84568078
42.9664886,-72.32282639	Keene	NH	3431	33005	Cheshire	42.9664886	-72.32282639
41.40973423,-81.69544221	Parma	OH	44134	39035	Cuyahoga	41.40973423	-81.69544221
41.2987102,-84.3743921	Noble	OH	43512	39039	Defiance	41.2987102	-84.3743921
40.90610897,-74.42078901	Boonton	NJ	7005	34027	Morris	40.90610897	-74.42078901
47.45360061,-122.2818965	SeaTac	WA	98188	53033	King	47.45360061	-122.2818965
61.20270238,-149.75424489	Anchorage	AK	99504	2020	Anchorage	61.20270238	-149.75424489
42.09155,-75.90424	Binghamton	NY	13903	36007	Broome	42.09155	-75.90424
40.28710673,-75.0740681	Philadelphia	PA	18925	42017	Bucks	40.28710673	-75.0740681
40.81830165,-75.8652868	Summit Hill	PA	18250	42025	Carbon	40.81830165	-75.8652868
46.19521472,-122.91607451	West Side Highway	WA	98626	53015	Cowlitz	46.19521472	-122.91607451
27.34223623,-80.35953286	Port St. Lucie	FL	34983	12111	St lucie	27.34223623	-80.35953286
42.80758026,-83.70736532	Fenton	MI	48430	26049	Genesee	42.80758026	-83.70736532
40.97861138,-73.70726374	Harrison	NY	10528	36119	Westchester	40.97861138	-73.70726374
40.15037885,-76.79103293	Valley Green	PA	17319	42133	York	40.15037885	-76.79103293
29.73368105,-95.40685896	Houston	TX	77098	48201	Harris	29.73368105	-95.40685896
41.01135249,-74.04007585	Hillsdale	NJ	7642	34003	Bergen	41.01135249	-74.04007585
33.40095303,-116.03906402	Desert Shores	CA	92254	6065	Riverside	33.40095303	-116.03906402
40.57597991,-74.70707353	Branchburg	NJ	8875	34035	Somerset	40.57597991	-74.70707353
30.37164744,-81.59963954	Jacksonville	FL	32277	12031	Duval	30.37164744	-81.59963954
29.55059091,-98.62972881	San Antonio	TX	78249	48029	Bexar	29.55059091	-98.62972881
21.31229721,-158.01590121	Ewa Beach	HI	96709	15003	Honolulu	21.31229721	-158.01590121
42.4017537,-92.46442785	Black Hawk	IA	50624	19075	Grundy	42.4017537	-92.46442785
42.70882202,-83.41472056	Independence	MI	48329	26125	Oakland	42.70882202	-83.41472056
41.25331728,-84.12664614	Holgate	OH	43527	39069	Henry	41.25331728	-84.12664614
61.3009099,-149.49694858	Anchorage	AK	99577	2020	Anchorage	61.3009099	-149.49694858
41.74276982,-70.71856746	Wareham	MA	2571	25023	Plymouth	41.74276982	-70.71856746
37.74792521,-84.27891304	Richmond	KY	40475	21151	Madison	37.74792521	-84.27891304
41.97617117,-88.16387704	Bartlett	IL	60103	17043	Cook	41.97617117	-88.16387704
32.64462378,-85.43109083	Opelika	AL	36849	1081	Lee	32.64462378	-85.43109083
42.69818095,-87.9462707	Mount Pleasant	WI	53177	55101	Racine	42.69818095	-87.9462707
42.30962362,-71.83495587	Worcester	MA	1609	25027	Worcester	42.30962362	-71.83495587
29.82640559,-95.47422677	Houston	TX	77092	48201	Harris	29.82640559	-95.47422677
40.03718289,-80.66191664	Wheeling	WV	26031	54069	Marshall	40.03718289	-80.66191664
40.9904128,-75.4490998	Chestnuthill	PA	18330	42089	Monroe	40.9904128	-75.4490998
38.28527883,-77.57847506	Chancellor	VA	22407	51179	Spotsylvania	38.28527883	-77.57847506
39.93188723,-89.05244017	Warrensburg	IL	62573	17115	Macon	39.93188723	-89.05244017
42.24915402,-71.14005858	Boston	MA	2136	25025	Suffolk	42.24915402	-71.14005858
40.09814251,-75.15788711	Glenside	PA	19038	42091	Montgomery	40.09814251	-75.15788711
39.5389025,-119.7614312	Sparks	NV	89431	32031	Washoe	39.5389025	-119.7614312
39.7586283,-84.2455354	Dayton	OH	45417	39113	Montgomery	39.7586283	-84.2455354
48.07061775,-122.12786934	Marysville	WA	98270	53061	Snohomish	48.07061775	-122.12786934
42.86449083,-78.74545191	Cheektowaga	NY	14227	36029	Erie	42.86449083	-78.74545191
29.1664682,-95.4255303	Angleton	TX	77566	48039	Brazoria	29.1664682	-95.4255303
40.45539,-79.88306	Pittsburgh	PA	15208	42003	Allegheny	40.45539	-79.88306
42.20961201,-71.92446703	Leicester	MA	1542	25027	Worcester	42.20961201	-71.92446703
39.87396439,-74.86971955	Evesham	NJ	8055	34005	Burlington	39.87396439	-74.86971955
39.0188359,-95.05146291	Sherman	KS	66052	20103	Leavenworth	39.0188359	-95.05146291
40.5503565,-74.2835738	Woodbridge	NJ	7095	34023	Middlesex	40.5503565	-74.2835738
40.93452366,-72.838752	Wading River	NY	11792	36103	Suffolk	40.93452366	-72.838752
41.7209274,-87.6983902	Evergreen Park	IL	60805	17031	Cook	41.7209274	-87.6983902
39.849085,-75.24234875	Paulsboro	NJ	19113	34015	Delaware	39.849085	-75.24234875
32.6988471,-97.31755905	Fort Worth	TX	76110	48439	Tarrant	32.6988471	-97.31755905
26.32173462,-98.1897759	Edinburg	TX	78540	48215	Hidalgo	26.32173462	-98.1897759
36.5334039,-87.35859275	Clarksville	TN	37044	47125	Montgomery	36.5334039	-87.35859275
34.34793147,-83.89281761	Murrayville	GA	30506	13139	Hall	34.34793147	-83.89281761
32.68058093,-97.16292936	Dalworthington Gardens	TX	76016	48439	Tarrant	32.68058093	-97.16292936
40.80846896,-74.36717103	East Hanover	NJ	7936	34027	Morris	40.80846896	-74.36717103
43.52613396,-96.81341835	Sioux Falls	SD	57106	46099	Minnehaha	43.52613396	-96.81341835
42.31278916,-83.29082469	Dearborn Heights	MI	48128	26163	Wayne	42.31278916	-83.29082469
38.70086432,-93.22753966	Sedalia	MO	65301	29159	Pettis	38.70086432	-93.22753966
47.45354403,-122.28205299	SeaTac	WA	98188	53033	King	47.45354403	-122.28205299
32.8708058,-96.6790458	Dallas	TX	75228	48113	Dallas	32.8708058	-96.6790458
40.37610843,-79.82595506	North Versailles	PA	15137	42003	Allegheny	40.37610843	-79.82595506
41.38022736,-83.64268855	Bowling Green	OH	43403	39173	Wood	41.38022736	-83.64268855
47.06852328,-122.33262512	Frederickson	WA	98375	53053	Pierce	47.06852328	-122.33262512
39.43111221,-89.97257334	South Palmyra	IL	62667	17117	Macoupin	39.43111221	-89.97257334
39.91630149,-74.76953697	Southampton	NJ	8048	34005	Burlington	39.91630149	-74.76953697
37.75653913,-84.29066911	Richmond	KY	40475	21151	Madison	37.75653913	-84.29066911
44.84457085,-93.57514324	Chanhassen	MN	55317	27019	Carver	44.84457085	-93.57514324
32.45541564,-92.65276808	Hodge	LA	71268	22061	Jackson	32.45541564	-92.65276808
42.4757449,-122.80392744	Eagle Point	OR	97524	41029	Jackson	42.4757449	-122.80392744
40.05837766,-82.88531375	Columbus	OH	43230	39049	Franklin	40.05837766	-82.88531375
41.6714589,-81.42349641	Eastlake	OH	44060	39085	Lake	41.6714589	-81.42349641
41.79784208,-70.53519472	Sagamore	MA	2562	25001	Barnstable	41.79784208	-70.53519472
25.74468388,-80.41768927	Kendale Lakes-Lindgren Acres	FL	33175	12086	Miami-dade	25.74468388	-80.41768927
38.00478056,-121.29477242	Stockton	CA	95267	6077	San joaquin	38.00478056	-121.29477242
40.75999389,-73.99179224	Manhattan	NY	10036	36061	New york	40.75999389	-73.99179224
37.69830287,-122.1226716	Ashland	CA	94578	6001	Alameda	37.69830287	-122.1226716
42.03501231,-87.71188972	Skokie	IL	60203	17031	Cook	42.03501231	-87.71188972
32.07526416,-102.08135869	Midland	TX	79705	48329	Midland	32.07526416	-102.08135869
41.51212782,-81.44927201	Mayfield Heights	OH	44124	39035	Cuyahoga	41.51212782	-81.44927201
47.2290425,-122.396988	Tacoma	WA	98404	53053	Pierce	47.2290425	-122.396988
35.83464373,-96.38581135	Bristow	OK	74010	40037	Creek	35.83464373	-96.38581135
41.10684315,-80.64743258	Youngstown	OH	44555	39099	Mahoning	41.10684315	-80.64743258
43.0542641,-78.8803683	North Tonawanda	NY	14120	36063	Niagara	43.0542641	-78.8803683
36.09016344,-119.56901789	Corcoran	CA	93212	6031	Kings	36.09016344	-119.56901789
41.72738263,-83.61202628	Toledo	OH	43613	39095	Lucas	41.72738263	-83.61202628
37.763355,-122.22961507	Alameda	CA	94601	6001	Alameda	37.763355	-122.22961507
39.3228043,-84.5482564	Fairfield	OH	45014	39017	Butler	39.3228043	-84.5482564
43.50761238,-96.70366997	Sioux Falls	SD	57105	46099	Minnehaha	43.50761238	-96.70366997
27.288608,-80.294307	Port St. Lucie	FL	34952	12111	St lucie	27.288608	-80.294307
41.80691474,-72.25223799	Storrs	CT	6269	9013	Tolland	41.80691474	-72.25223799
38.76122931,-77.08692807	Groveton	VA	22306	51510	Fairfax	38.76122931	-77.08692807
41.48567839,-87.51103358	Dyer	IN	46311	18089	Lake	41.48567839	-87.51103358
42.1344657,-70.9024151	Rockland	MA	2370	25023	Plymouth	42.1344657	-70.9024151
39.46785091,-82.23656419	Nelsonville	OH	45764	39009	Athens	39.46785091	-82.23656419
36.1638958,-86.7617057	Nashville	TN	37213	47037	Davidson	36.1638958	-86.7617057
43.0776201,-87.9085249	Milwaukee	WI	53212	55079	Milwaukee	43.0776201	-87.9085249
38.07393798,-75.56565598	Pocomoke City	MD	21851	24047	Worcester	38.07393798	-75.56565598
34.17903196,-118.62880697	Los Angeles	CA	91367	6037	Los angeles	34.17903196	-118.62880697
42.23197463,-83.17864851	Lincoln Park	MI	48146	26163	Wayne	42.23197463	-83.17864851
34.14333847,-84.84329917	Cartersville	GA	30120	13015	Bartow	34.14333847	-84.84329917
30.42029173,-97.84279802	Travis Northwest	TX	78726	48453	Travis	30.42029173	-97.84279802
42.52760159,-71.46359481	Littleton Common	MA	1718	25017	Middlesex	42.52760159	-71.46359481
38.68706418,-87.5208896	Vincennes	IN	47591	18083	Knox	38.68706418	-87.5208896
46.48523034,-84.34574098	Sault Ste. Marie	MI	49778	26033	Chippewa	46.48523034	-84.34574098
46.57782675,-120.51202319	Yakima	WA	98936	53077	Yakima	46.57782675	-120.51202319
30.152497,-92.046385	Lafayette	LA	70508	22055	Lafayette	30.152497	-92.046385
42.96106205,-85.62595017	Grand Rapids	MI	49506	26081	Kent	42.96106205	-85.62595017
41.82214626,-71.41148664	Providence	RI	2901	44007	Providence	41.82214626	-71.41148664
37.85775383,-87.56507028	Henderson	KY	42420	21101	Henderson	37.85775383	-87.56507028
42.19215524,-72.62975976	Holyoke	MA	1040	25013	Hampden	42.19215524	-72.62975976
39.25124451,-84.21822329	Goshen	OH	45140	39025	Clermont	39.25124451	-84.21822329
41.50901868,-81.56810959	Cleveland Heights	OH	44112	39035	Cuyahoga	41.50901868	-81.56810959
26.2369023,-80.25278807	Coral Springs	FL	33071	12011	Broward	26.2369023	-80.25278807
40.69397204,-73.91222798	New York	NY	11237	36047	Kings	40.69397204	-73.91222798
40.91140893,-73.9072567	New York	NY	10471	36005	Bronx	40.91140893	-73.9072567
39.71643146,-75.65880314	Pike Creek-Central Kirkwood	DE	19804	10003	New castle	39.71643146	-75.65880314
41.7514968,-72.6732223	Hartford	CT	6115	9003	Hartford	41.7514968	-72.6732223
40.83049699,-72.82376523	Manorville	NY	11955	36103	Suffolk	40.83049699	-72.82376523
40.8135216,-73.369751	Dix Hills	NY	11746	36103	Suffolk	40.8135216	-73.369751
32.24739634,-110.8194694	Tucson	AZ	85715	4019	Pima	32.24739634	-110.8194694
38.86973673,-94.84002737	Olathe	KS	66061	20091	Johnson	38.86973673	-94.84002737
42.56474872,-83.46259738	Commerce	MI	48390	26125	Oakland	42.56474872	-83.46259738
40.65370882,-74.12946543	Bayonne	NJ	7002	34017	Hudson	40.65370882	-74.12946543
41.91281495,-87.82300877	Elmwood Park	IL	60707	17031	Cook	41.91281495	-87.82300877
31.1283937,-97.7325255	Killeen	TX	76540	48027	Bell	31.1283937	-97.7325255
40.03517067,-76.50561975	Columbia	PA	17512	42071	Lancaster	40.03517067	-76.50561975
41.18005999,-91.1884217	Wapello	IA	52653	19115	Louisa	41.18005999	-91.1884217
40.6371387,-74.2641488	Linden	NJ	7036	34039	Union	40.6371387	-74.2641488
41.54317579,-75.53232626	Mayfield	PA	18407	42069	Lackawanna	41.54317579	-75.53232626
39.62524796,-74.78750649	Hammonton	NJ	8037	34001	Atlantic	39.62524796	-74.78750649
38.7524266,-90.217981	St. Ferdinand	MO	63137	29189	St louis	38.7524266	-90.217981
39.97207556,-74.94640127	Moorestown-Lenola	NJ	8057	34005	Burlington	39.97207556	-74.94640127
33.760332,-84.3951594	Atlanta	GA	30313	13121	Fulton	33.760332	-84.3951594
40.9956966,-75.1807786	East Stroudsburg	PA	18327	42089	Monroe	40.9956966	-75.1807786
40.4368742,-79.9760805	Pittsburgh	PA	15219	42003	Allegheny	40.4368742	-79.9760805
33.13081288,-117.16051014	San Marcos	CA	92069	6073	San diego	33.13081288	-117.16051014
43.1688914,-77.5578438	Irondequoit	NY	14609	36055	Monroe	43.1688914	-77.5578438
41.29230884,-75.88280188	Swoyersville	PA	18709	42079	Luzerne	41.29230884	-75.88280188
40.09294173,-82.82442813	Columbus	OH	43054	39049	Franklin	40.09294173	-82.82442813
40.1630842,-75.0001889	Lower Southampton	PA	19053	42017	Bucks	40.1630842	-75.0001889
42.0001987,-88.0172188	Elk Grove Village	IL	60007	17031	Cook	42.0001987	-88.0172188
40.48447094,-80.03229943	Pittsburgh	PA	15214	42003	Allegheny	40.48447094	-80.03229943
42.41042225,-71.08511089	Medford	MA	2155	25017	Middlesex	42.41042225	-71.08511089
40.57067444,-75.53251043	South Whitehall	PA	18104	42077	Lehigh	40.57067444	-75.53251043
39.97815107,-76.83003615	Weigelstown	PA	17315	42133	York	39.97815107	-76.83003615
42.08794342,-75.96212025	Vestal	NY	13850	36007	Broome	42.08794342	-75.96212025
43.67830788,-70.37161291	Westbrook	ME	4092	23005	Cumberland	43.67830788	-70.37161291
41.5849699,-87.4437973	Chicago	IL	46323	18089	Lake	41.5849699	-87.4437973
36.20976218,-94.20000495	Elm Springs	AR	72762	5143	Washington	36.20976218	-94.20000495
41.04839731,-81.45595486	Akron	OH	44312	39153	Summit	41.04839731	-81.45595486
30.02348952,-90.21644488	Metairie	LA	70006	22051	Jefferson	30.02348952	-90.21644488
40.85032434,-73.86040916	New York	NY	10462	36005	Bronx	40.85032434	-73.86040916
36.03904545,-78.66710901	New Light	NC	27564	37077	Granville	36.03904545	-78.66710901
40.54084631,-75.59361046	Ancient Oaks	PA	18087	42077	Lehigh	40.54084631	-75.59361046
29.53468992,-98.71075335	West Bexar	TX	78254	48029	Bexar	29.53468992	-98.71075335
41.69251706,-87.70260416	Chicago	IL	60655	17031	Cook	41.69251706	-87.70260416
47.3381184,-122.21918762	Auburn	WA	98002	53033	King	47.3381184	-122.21918762
35.29578407,-120.66600417	San Luis Obispo	CA	93405	6079	San luis obispo	35.29578407	-120.66600417
34.00456309,-118.08926761	Pico Rivera	CA	90660	6037	Los angeles	34.00456309	-118.08926761
37.60176459,-122.05960415	Union City	CA	94587	6001	Alameda	37.60176459	-122.05960415
41.84520032,-71.34619981	East Providence	RI	2916	44007	Providence	41.84520032	-71.34619981
30.1291353,-81.80568911	Lakeside	FL	32065	12019	Clay	30.1291353	-81.80568911
40.72497429,-74.303781	Millburn	NJ	7041	34013	Essex	40.72497429	-74.303781
40.2733375,-81.7461347	West Lafayette	OH	43845	39031	Coshocton	40.2733375	-81.7461347
39.34042622,-74.49115717	Ventnor City	NJ	8406	34001	Atlantic	39.34042622	-74.49115717
37.45029587,-122.20654483	Atherton	CA	94027	6081	San mateo	37.45029587	-122.20654483
40.15807045,-79.91925041	Fallowfield	PA	15022	42125	Washington	40.15807045	-79.91925041
42.56223568,-87.84861975	Kenosha	WI	53143	55059	Kenosha	42.56223568	-87.84861975
28.017855,-82.4869356	Egypt Lake-Leto	FL	33614	12057	Hillsborough	28.017855	-82.4869356
42.10584005,-72.64765788	West Springfield	MA	1089	25013	Hampden	42.10584005	-72.64765788
37.76457927,-87.09901819	Owensboro	KY	42303	21059	Daviess	37.76457927	-87.09901819
39.22217905,-84.59744649	Groesbeck	OH	45239	39061	Hamilton	39.22217905	-84.59744649
42.56827461,-87.84658054	Kenosha	WI	53143	55059	Kenosha	42.56827461	-87.84658054
34.08045984,-80.93577311	Dentsville	SC	29223	45079	Richland	34.08045984	-80.93577311
29.4787071,-95.1157877	League City	TX	77573	48167	Galveston	29.4787071	-95.1157877
41.754329,-87.5877117	Chicago	IL	60649	17031	Cook	41.754329	-87.5877117
43.0943653,-79.04044267	Niagara Falls	NY	14301	36063	Niagara	43.0943653	-79.04044267
36.11844547,-79.78704224	Gilmer	NC	27420	37081	Guilford	36.11844547	-79.78704224
35.2760622,-81.5114584	Shelby	NC	28152	37045	Cleveland	35.2760622	-81.5114584
48.41431426,-122.33340565	Mount Vernon	WA	98233	53057	Skagit	48.41431426	-122.33340565
34.06409541,-101.85332898	Hale Center	TX	79041	48189	Hale	34.06409541	-101.85332898
30.34067157,-89.17544285	Long Beach	MS	39560	28047	Harrison	30.34067157	-89.17544285
42.0542339,-71.8759494	Webster	MA	1571	25027	Worcester	42.0542339	-71.8759494
42.87094154,-88.07554193	Muskego	WI	53103	55133	Waukesha	42.87094154	-88.07554193
41.37696527,-82.76899927	Margaretta	OH	44824	39043	Erie	41.37696527	-82.76899927
26.07745,-80.39753	Weston	FL	33332	12011	Broward	26.07745	-80.39753
25.95836788,-80.31354647	Miramar	FL	33015	12011	Miami-dade	25.95836788	-80.31354647
26.00187145,-80.13104928	Hollywood	FL	33019	12011	Broward	26.00187145	-80.13104928
41.66738614,-91.53405005	Iowa City	IA	52242	19103	Johnson	41.66738614	-91.53405005
32.92250143,-96.56828471	Rowlett	TX	75089	48113	Dallas	32.92250143	-96.56828471
34.8546928,-82.4773217	Berea	SC	29604	45045	Greenville	34.8546928	-82.4773217
39.18551702,-84.78104135	Whitewater	OH	45033	39061	Hamilton	39.18551702	-84.78104135
35.52619305,-97.9412319	El Reno	OK	73036	40017	Canadian	35.52619305	-97.9412319
41.48811248,-87.03160424	Valparaiso	IN	46384	18127	Porter	41.48811248	-87.03160424
33.9799874,-117.70779572	Chino Hills	CA	91709	6071	San bernardino	33.9799874	-117.70779572
35.66870122,-78.75771276	Swift Creek	NC	27540	37183	Wake	35.66870122	-78.75771276
41.59930109,-93.65964485	Des Moines	IA	50311	19153	Polk	41.59930109	-93.65964485
41.11051473,-73.79534199	Hawthorne	NY	10532	36119	Westchester	41.11051473	-73.79534199
32.520248,-92.7136827	Grambling	LA	71245	22061	Lincoln	32.520248	-92.7136827
41.43818281,-74.42690951	Middletown	NY	10940	36071	Orange	41.43818281	-74.42690951
40.75475,-73.93973	Queens	NY	11106	36081	Queens	40.75475	-73.93973
47.5071429,-122.3346448	White Center	WA	98168	53033	King	47.5071429	-122.3346448
35.9261931,-78.99680732	Triangle	NC	27517	37063	Orange	35.9261931	-78.99680732
36.07818718,-115.05149518	Henderson	NV	89077	32003	Clark	36.07818718	-115.05149518
41.96142639,-87.99468498	Wood Dale	IL	60191	17043	Du page	41.96142639	-87.99468498
34.8543939,-82.47751721	Berea	SC	29604	45045	Greenville	34.8543939	-82.47751721
43.14713278,-76.3052161	Lysander	NY	13027	36067	Onondaga	43.14713278	-76.3052161
40.96943929,-81.86393777	Milton	OH	44273	39169	Medina	40.96943929	-81.86393777
41.59299,-87.81442	Tinley Park	IL	60477	17031	Cook	41.59299	-87.81442
38.6678419,-89.9920254	Collinsville	IL	62269	17119	St clair	38.6678419	-89.9920254
33.95533725,-92.19784205	Rison	AR	71665	5025	Cleveland	33.95533725	-92.19784205
42.197017,-84.4409785	Summit	MI	49203	26075	Jackson	42.197017	-84.4409785
40.86858101,-73.90134425	New York	NY	10468	36005	Bronx	40.86858101	-73.90134425
40.15650904,-79.89269799	Monessen	PA	15062	42129	Westmoreland	40.15650904	-79.89269799
40.93604796,-74.02526906	New Milford	NJ	7646	34003	Bergen	40.93604796	-74.02526906
43.05159177,-89.43377536	Madison	WI	53711	55025	Dane	43.05159177	-89.43377536
40.1372256,-79.9525893	Fallowfield	PA	15022	42125	Washington	40.1372256	-79.9525893
33.79055402,-118.32049675	Lomita	CA	90717	6037	Los angeles	33.79055402	-118.32049675
43.71940199,-87.81098031	Sheboygan Falls	WI	53085	55117	Sheboygan	43.71940199	-87.81098031
40.8891046,-74.113897	Garfield	NJ	7026	34003	Bergen	40.8891046	-74.113897
40.05219667,-76.26024434	Lancaster	PA	17528	42071	Lancaster	40.05219667	-76.26024434
42.20655155,-71.83713627	Auburn	MA	1501	25027	Worcester	42.20655155	-71.83713627
46.2558479,-119.1991056	West Pasco	WA	99352	53021	Benton	46.2558479	-119.1991056
39.92050255,-75.16181635	Philadelphia	PA	19148	42101	Philadelphia	39.92050255	-75.16181635
47.50548634,-122.16121768	Renton	WA	98056	53033	King	47.50548634	-122.16121768
41.95156908,-93.66585083	Kelley	IA	50134	19169	Story	41.95156908	-93.66585083
41.9401532,-88.0881659	Bloomingdale	IL	60108	17043	Du page	41.9401532	-88.0881659
39.25558692,-77.2211132	Damascus	MD	20872	24031	Montgomery	39.25558692	-77.2211132
46.49334017,-84.36479111	Sault Ste. Marie	MI	49778	26033	Chippewa	46.49334017	-84.36479111
29.83219641,-95.51370165	Houston	TX	77080	48201	Harris	29.83219641	-95.51370165
41.45214133,-81.57621522	Cleveland	OH	44120	39035	Cuyahoga	41.45214133	-81.57621522
41.29337547,-73.14849105	Shelton	CT	6484	9001	Fairfield	41.29337547	-73.14849105
42.40052373,-83.26749324	Detroit	MI	48223	26163	Wayne	42.40052373	-83.26749324
34.53276509,-79.28755545	Rowland	NC	28383	37155	Robeson	34.53276509	-79.28755545
42.78312441,-83.01188688	Washington	MI	48095	26099	Macomb	42.78312441	-83.01188688
39.92247274,-75.08304441	Collingswood	NJ	8107	34007	Camden	39.92247274	-75.08304441
41.08041773,-81.43923263	Akron	OH	44305	39153	Summit	41.08041773	-81.43923263
42.27740304,-71.81863058	Worcester	MA	1609	25027	Worcester	42.27740304	-71.81863058
39.8691834,-75.35957116	Chester	PA	19094	42045	Delaware	39.8691834	-75.35957116
32.6069966,-85.4838589	Auburn	AL	36849	1081	Lee	32.6069966	-85.4838589
35.56028,-97.669024	Oklahoma City	OK	73132	40109	Oklahoma	35.56028	-97.669024
38.21343531,-84.5394739	Georgetown	KY	40324	21209	Scott	38.21343531	-84.5394739
35.21586939,-80.74176894	Charlotte	NC	28212	37119	Mecklenburg	35.21586939	-80.74176894
36.87380208,-89.60601816	Sikeston	MO	63801	29201	Scott	36.87380208	-89.60601816
40.32846751,-79.71072268	Irwin	PA	15642	42129	Westmoreland	40.32846751	-79.71072268
33.759348,-78.819416	Myrtle Beach	SC	29572	45051	Horry	33.759348	-78.819416
42.61665858,-83.94693605	Howell	MI	48843	26093	Livingston	42.61665858	-83.94693605
27.89806558,-97.33895704	Portland	TX	78374	48409	San patricio	27.89806558	-97.33895704
41.4476143,-82.69193385	Sandusky	OH	44870	39043	Erie	41.4476143	-82.69193385
41.30422208,-96.11543597	Omaha	NE	68164	31055	Douglas	41.30422208	-96.11543597
44.99660143,-122.96268578	Hayesville	OR	97313	41047	Marion	44.99660143	-122.96268578
33.69612748,-117.40029394	Lake Elsinore	CA	92530	6065	Riverside	33.69612748	-117.40029394
43.0096469,-88.1149547	New Berlin	WI	53151	55133	Waukesha	43.0096469	-88.1149547
41.41137445,-81.6904951	Parma	OH	44134	39035	Cuyahoga	41.41137445	-81.6904951
39.54656872,-75.77484353	Central Pencader	DE	21915	24015	Cecil	39.54656872	-75.77484353
40.9904918,-75.4490706	Chestnuthill	PA	18330	42089	Monroe	40.9904918	-75.4490706
42.93308066,-88.00032755	Greendale	WI	53129	55079	Milwaukee	42.93308066	-88.00032755
42.02082411,-83.95556994	Tecumseh	MI	49236	26091	Lenawee	42.02082411	-83.95556994
41.60804045,-73.15386246	Watertown	CT	6751	9005	Litchfield	41.60804045	-73.15386246
40.51246072,-89.78054853	Spring Lake	IL	61539	17179	Peoria	40.51246072	-89.78054853
35.1649534,-89.9839502	Memphis	TN	37501	47157	Shelby	35.1649534	-89.9839502
41.82663652,-71.90343432	Killingly	CT	6239	9015	Windham	41.82663652	-71.90343432
33.95915137,-117.05091778	San Gorgonio Pass	CA	92320	6065	Riverside	33.95915137	-117.05091778
29.73372702,-95.40687103	Houston	TX	77098	48201	Harris	29.73372702	-95.40687103
42.34941773,-122.83180613	Medford	OR	97504	41029	Jackson	42.34941773	-122.83180613
41.55473788,-74.18806566	Walden	NY	12549	36071	Orange	41.55473788	-74.18806566
40.7719156,-79.52870333	Ford City	PA	16228	42005	Armstrong	40.7719156	-79.52870333
41.35681451,-73.00780548	Woodbridge	CT	6525	9009	New haven	41.35681451	-73.00780548
35.00724507,-90.00177208	Memphis	TN	38116	47157	Shelby	35.00724507	-90.00177208
33.87031828,-118.37400237	Redondo Beach	CA	90278	6037	Los angeles	33.87031828	-118.37400237
41.58798366,-73.41774532	New Milford	CT	6776	9005	Litchfield	41.58798366	-73.41774532
41.28784309,-72.96093792	West Haven	CT	6516	9009	New haven	41.28784309	-72.96093792
42.60423331,-76.18315229	Cortland	NY	13045	36023	Cortland	42.60423331	-76.18315229
41.83134916,-71.47879606	Johnston	RI	2909	44007	Providence	41.83134916	-71.47879606
33.70293897,-84.7018177	Bill Arp	GA	30336	13097	Fulton	33.70293897	-84.7018177
40.03524853,-75.05911346	Philadelphia	PA	19149	42101	Philadelphia	40.03524853	-75.05911346
40.98657561,-74.02012783	Westwood	NJ	7630	34003	Bergen	40.98657561	-74.02012783
40.6149487,-75.3778014	Bethlehem	PA	18018	42095	Northampton	40.6149487	-75.3778014
36.19540588,-115.11405316	North Las Vegas	NV	89101	32003	Clark	36.19540588	-115.11405316
32.09977748,-96.45528417	Corsicana	TX	75110	48349	Navarro	32.09977748	-96.45528417
29.73370234,-95.40667757	Houston	TX	77098	48201	Harris	29.73370234	-95.40667757
33.78849171,-118.13263189	Long Beach	CA	90804	6037	Los angeles	33.78849171	-118.13263189
33.021794,-96.766505	Plano	TX	75093	48085	Collin	33.021794	-96.766505
40.831179,-73.8573903	New York	NY	10472	36005	Bronx	40.831179	-73.8573903
40.93668938,-73.89320611	Yonkers	NY	10703	36119	Westchester	40.93668938	-73.89320611
45.0446564,-93.4543025	Plymouth	MN	55442	27053	Hennepin	45.0446564	-93.4543025
30.45097114,-81.71796875	Jacksonville	FL	32218	12031	Duval	30.45097114	-81.71796875
40.83091412,-74.71056431	Mount Olive	NJ	7836	34027	Morris	40.83091412	-74.71056431
46.19715445,-119.14806132	Kennewick	WA	99337	53005	Benton	46.19715445	-119.14806132
47.06843494,-122.33272025	Frederickson	WA	98375	53053	Pierce	47.06843494	-122.33272025
37.42949263,-79.88813681	Amsterdam	VA	24175	51023	Botetourt	37.42949263	-79.88813681
46.47051711,-122.86501914	Olequa	WA	98591	53041	Lewis	46.47051711	-122.86501914
41.26512721,-73.20699923	Trumbull	CT	6611	9001	Fairfield	41.26512721	-73.20699923
35.24722206,-81.24876746	Gastonia	NC	28052	37071	Gaston	35.24722206	-81.24876746
40.42890614,-74.19615551	Keyport	NJ	7730	34025	Monmouth	40.42890614	-74.19615551
41.8878279,-88.1538714	Winfield	IL	60190	17043	Du page	41.8878279	-88.1538714
40.80538211,-81.51827218	Massillon	OH	44646	39151	Stark	40.80538211	-81.51827218
34.0587929,-118.2647781	Los Angeles	CA	90017	6037	Los angeles	34.0587929	-118.2647781
25.5427337,-80.3702749	Princeton	FL	33032	12086	Miami-dade	25.5427337	-80.3702749
47.1888556,-122.29138331	Puyallup	WA	98371	53053	Pierce	47.1888556	-122.29138331
33.9301849,-117.2453691	Moreno Valley	CA	92557	6065	Riverside	33.9301849	-117.2453691
40.14584069,-79.90606953	Charleroi	PA	15022	42125	Washington	40.14584069	-79.90606953
32.8497407,-97.0635444	Euless	TX	76039	48439	Tarrant	32.8497407	-97.0635444
42.3344123,-83.51005825	Canton	MI	48187	26163	Wayne	42.3344123	-83.51005825
36.114646,-115.172813	Paradise	NV	89109	32003	Clark	36.114646	-115.172813
40.71666316,-73.29548992	West Islip	NY	11795	36103	Suffolk	40.71666316	-73.29548992
41.48811746,-87.03185201	Valparaiso	IN	46384	18127	Porter	41.48811746	-87.03185201
34.06995908,-84.22130574	Alpharetta	GA	30005	13121	Fulton	34.06995908	-84.22130574
34.44372532,-118.39344319	Santa Clarita	CA	91387	6037	Los angeles	34.44372532	-118.39344319
46.22591583,-119.22695079	Kennewick	WA	99338	53005	Benton	46.22591583	-119.22695079
38.79514149,-97.60896714	Salina	KS	67402	20169	Saline	38.79514149	-97.60896714
39.51435195,-75.16688459	Pittsgrove	NJ	8313	34033	Cumberland	39.51435195	-75.16688459
45.0645705,-93.3347603	Brooklyn Center	MN	55429	27053	Hennepin	45.0645705	-93.3347603
37.59170354,-120.97575031	Ceres	CA	95307	6099	Stanislaus	37.59170354	-120.97575031
39.04782,-94.352976	Independence	MO	64121	29095	Jackson	39.04782	-94.352976
38.38006206,-86.12331153	Morgan	IN	47164	18043	Harrison	38.38006206	-86.12331153
38.77823488,-76.06871865	Easton	MD	21601	24041	Talbot	38.77823488	-76.06871865
40.79580989,-77.86405693	State College	PA	16802	42027	Centre	40.79580989	-77.86405693
42.4871191,-90.66341363	Dubuque	IA	52003	19061	Dubuque	42.4871191	-90.66341363
37.69827018,-121.0255047	Modesto	CA	95356	6099	Stanislaus	37.69827018	-121.0255047
33.8103645,-84.38106422	Atlanta	GA	30309	13121	Fulton	33.8103645	-84.38106422
39.62198495,-77.66212592	Robinwood	MD	21721	24043	Washington	39.62198495	-77.66212592
41.3605516,-85.08668156	Keyser	IN	46738	18033	De kalb	41.3605516	-85.08668156
39.22091179,-84.42705371	Reading	OH	45236	39061	Hamilton	39.22091179	-84.42705371
40.57202652,-74.30377572	Iselin	NJ	8830	34023	Middlesex	40.57202652	-74.30377572
40.86682054,-73.92008106	Manhattan	NY	10034	36061	New york	40.86682054	-73.92008106
42.04637289,-87.7444768	Skokie	IL	60076	17031	Cook	42.04637289	-87.7444768
39.64984491,-104.74598411	South Aurora	CO	80016	8005	Arapahoe	39.64984491	-104.74598411
45.64366508,-122.48491386	Mill Plain	WA	98684	53011	Clark	45.64366508	-122.48491386
47.29660762,-122.41516919	Tacoma	WA	98422	53053	Pierce	47.29660762	-122.41516919
28.10034674,-82.72857019	Palm Harbor	FL	34684	12103	Pinellas	28.10034674	-82.72857019
35.29036725,-81.53774177	Shelby	NC	28152	37045	Cleveland	35.29036725	-81.53774177
39.90700585,-75.26394644	Sharon Hill	PA	19079	42045	Delaware	39.90700585	-75.26394644
26.2715779,-80.2043427	Margate	FL	33063	12011	Broward	26.2715779	-80.2043427
33.88666595,-118.347633	Lawndale	CA	90260	6037	Los angeles	33.88666595	-118.347633
35.1657088,-89.9920705	Memphis	TN	37501	47157	Shelby	35.1657088	-89.9920705
42.23655237,-83.20490603	Allen Park	MI	48101	26163	Wayne	42.23655237	-83.20490603
29.69093087,-95.68570166	Mission Bend	TX	77083	48157	Harris	29.69093087	-95.68570166
38.94823859,-94.71587389	Overland Park	KS	66214	20091	Johnson	38.94823859	-94.71587389
40.6582461,-74.2499323	Roselle	NJ	7203	34039	Union	40.6582461	-74.2499323
34.06354185,-118.03237207	El Monte	CA	91733	6037	Los angeles	34.06354185	-118.03237207
43.04826777,-76.23481273	Fairmount	NY	13219	36067	Onondaga	43.04826777	-76.23481273
40.90137013,-73.79056594	New Rochelle	NY	10805	36119	Westchester	40.90137013	-73.79056594
40.2540197,-74.86896199	Lower Makefield	PA	18977	34021	Bucks	40.2540197	-74.86896199
42.73009155,-84.4955149	East Lansing	MI	48824	26065	Ingham	42.73009155	-84.4955149
44.93443636,-93.41790716	Hopkins	MN	55305	27053	Hennepin	44.93443636	-93.41790716
33.96165425,-117.40100985	Riverside	CA	92506	6065	Riverside	33.96165425	-117.40100985
40.85029073,-73.86048107	New York	NY	10462	36005	Bronx	40.85029073	-73.86048107
